{
"type": "FeatureCollection",
"name": "VrcholyAll",
"crs": { "type": "name", "properties": { "name": "urn:ogc:def:crs:OGC:1.3:CRS84" } },
"features": [
{ "type": "Feature", "properties": { "OBJECTID": 1, "F_id": 26862539.0, "F_lat": 46.6077526, "F_lon": 12.0445388, "name": "Col Becchei Dessora", "ele": "2794", "stat": "ITA" }, "geometry": { "type": "Point", "coordinates": [ 12.044538799725899, 46.607752599902597, 2793.99997650000023 ] } },
{ "type": "Feature", "properties": { "OBJECTID": 2, "F_id": 26862562.0, "F_lat": 47.4750415, "F_lon": 12.7338343, "name": "Birnhorn", "ele": "2634", "stat": "AUT" }, "geometry": { "type": "Point", "coordinates": [ 12.733834300212834, 47.475041499765439, 2633.99997650000023 ] } },
{ "type": "Feature", "properties": { "OBJECTID": 3, "F_id": 26862621.0, "F_lat": 47.2294962, "F_lon": 10.0643311, "name": "Braunarlspitze", "ele": "2649", "stat": "AUT" }, "geometry": { "type": "Point", "coordinates": [ 10.064331100400011, 47.229496200289475, 2648.99997650000023 ] } },
{ "type": "Feature", "properties": { "OBJECTID": 4, "F_id": 26862636.0, "F_lat": 46.8477779, "F_lon": 8.55, "name": "Brunnistock", "ele": "2952", "stat": "CHE" }, "geometry": { "type": "Point", "coordinates": [ 8.550000000099999, 46.847777900229971, 2951.99997650000023 ] } },
{ "type": "Feature", "properties": { "OBJECTID": 5, "F_id": 26862684.0, "F_lat": 46.4791667, "F_lon": 12.0980556, "name": "Cima Ambrizzola", "ele": "2715", "stat": "ITA" }, "geometry": { "type": "Point", "coordinates": [ 12.098055600285761, 46.479166700083169, 2714.99997650000023 ] } },
{ "type": "Feature", "properties": { "OBJECTID": 6, "F_id": 26862686.0, "F_lat": 46.4851159, "F_lon": 12.2678531, "name": "Cima Bastioni", "ele": "2926", "stat": "ITA" }, "geometry": { "type": "Point", "coordinates": [ 12.267853100140485, 46.485115899779032, 2925.99997650000023 ] } },
{ "type": "Feature", "properties": { "OBJECTID": 7, "F_id": 26862691.0, "F_lat": 46.5776149, "F_lon": 12.2882724, "name": "Cima Cadin di San Lucano", "ele": "2839", "stat": "ITA" }, "geometry": { "type": "Point", "coordinates": [ 12.288272399651589, 46.577614899907758, 2838.99997650000023 ] } },
{ "type": "Feature", "properties": { "OBJECTID": 8, "F_id": 26862692.0, "F_lat": 45.0721363, "F_lon": 7.0129694, "name": "Cima Ciantiplagna", "ele": "2849", "stat": "ITA" }, "geometry": { "type": "Point", "coordinates": [ 7.012969399818019, 45.072136299550664, 2848.99997650000023 ] } },
{ "type": "Feature", "properties": { "OBJECTID": 9, "F_id": 26862693.0, "F_lat": 46.1766183, "F_lon": 11.6052937, "name": "Cima d'Asta", "ele": "2847", "stat": "ITA" }, "geometry": { "type": "Point", "coordinates": [ 11.605293700344021, 46.176618299894699, 2846.99997650000023 ] } },
{ "type": "Feature", "properties": { "OBJECTID": 10, "F_id": 26862695.0, "F_lat": 46.3423245, "F_lon": 12.4210592, "name": "Cima dei Preti", "ele": "2707", "stat": "ITA" }, "geometry": { "type": "Point", "coordinates": [ 12.421059200022114, 46.342324499576023, 2706.99997650000023 ] } },
{ "type": "Feature", "properties": { "OBJECTID": 11, "F_id": 26862703.0, "F_lat": 46.3841697, "F_lon": 9.1747139, "name": "Cima di Gagela", "ele": "2805", "stat": "CHE" }, "geometry": { "type": "Point", "coordinates": [ 9.174713900226379, 46.384169699871791, 2804.99997650000023 ] } },
{ "type": "Feature", "properties": { "OBJECTID": 12, "F_id": 26862708.0, "F_lat": 46.3343734, "F_lon": 11.9283766, "name": "Cima Pape", "ele": "2503", "stat": "ITA" }, "geometry": { "type": "Point", "coordinates": [ 11.928376599600426, 46.334373400012453, 2502.99997650000023 ] } },
{ "type": "Feature", "properties": { "OBJECTID": 13, "F_id": 26862711.0, "F_lat": 46.9464887, "F_lon": 11.5077966, "name": "Rollspitze - Cima Rolle", "ele": "2800", "stat": "ITA" }, "geometry": { "type": "Point", "coordinates": [ 11.50779660013302, 46.946488700293344, 2799.99997650000023 ] } },
{ "type": "Feature", "properties": { "OBJECTID": 14, "F_id": 26862717.0, "F_lat": 46.5073978, "F_lon": 12.3404365, "name": "Cimon del Froppa", "ele": "2932", "stat": "ITA" }, "geometry": { "type": "Point", "coordinates": [ 12.340436500244323, 46.507397799568821, 2931.99997650000023 ] } },
{ "type": "Feature", "properties": { "OBJECTID": 15, "F_id": 26862760.0, "F_lat": 47.4751892, "F_lon": 13.6056695, "name": "Hoher Dachstein", "ele": "2995", "stat": "AUT" }, "geometry": { "type": "Point", "coordinates": [ 13.605669499647718, 47.475189199921715, 2994.99997650000023 ] } },
{ "type": "Feature", "properties": { "OBJECTID": 16, "F_id": 26862772.0, "F_lat": 46.8718905, "F_lon": 12.3579692, "name": "Weiße Spitze", "ele": "2962", "stat": "AUT" }, "geometry": { "type": "Point", "coordinates": [ 12.357969199918671, 46.871890500446284, 2961.99997650000023 ] } },
{ "type": "Feature", "properties": { "OBJECTID": 17, "F_id": 26862818.0, "F_lat": 46.4313539, "F_lon": 8.0942332, "name": "Eggishorn", "ele": "2926", "stat": "CHE" }, "geometry": { "type": "Point", "coordinates": [ 8.094233200002236, 46.431353899962573, 2925.99997650000023 ] } },
{ "type": "Feature", "properties": { "OBJECTID": 18, "F_id": 26862940.0, "F_lat": 46.4511604, "F_lon": 7.3532098, "name": "Giferspitz", "ele": "2542", "stat": "CHE" }, "geometry": { "type": "Point", "coordinates": [ 7.353209799792467, 46.451160399632784, 2541.99997650000023 ] } },
{ "type": "Feature", "properties": { "OBJECTID": 19, "F_id": 26862948.0, "F_lat": 47.1485594, "F_lon": 10.6616265, "name": "Glanderspitze", "ele": "2512", "stat": "AUT" }, "geometry": { "type": "Point", "coordinates": [ 10.661626499663271, 47.14855939969658, 2511.99997650000023 ] } },
{ "type": "Feature", "properties": { "OBJECTID": 20, "F_id": 26862951.0, "F_lat": 46.7606419, "F_lon": 8.2626841, "name": "Glogghüs", "ele": "2535", "stat": "CHE" }, "geometry": { "type": "Point", "coordinates": [ 8.262684099991247, 46.760641900103678, 2534.99997650000023 ] } },
{ "type": "Feature", "properties": { "OBJECTID": 21, "F_id": 26863016.0, "F_lat": 45.4592629, "F_lon": 6.3662567, "name": "Grand Pic de la Lauzière", "ele": "2829", "stat": "FRA" }, "geometry": { "type": "Point", "coordinates": [ 6.366256700186625, 45.459262900262672, 2828.99997650000023 ] } },
{ "type": "Feature", "properties": { "OBJECTID": 22, "F_id": 26863054.0, "F_lat": 47.3203059, "F_lon": 13.9757742, "name": "Großer Knallstein", "ele": "2599", "stat": "AUT" }, "geometry": { "type": "Point", "coordinates": [ 13.975774200319165, 47.320305900397045, 2598.99997650000023 ] } },
{ "type": "Feature", "properties": { "OBJECTID": 23, "F_id": 26863055.0, "F_lat": 47.3456604, "F_lon": 11.4525659, "name": "Großer Lafatscher", "ele": "2696", "stat": "AUT" }, "geometry": { "type": "Point", "coordinates": [ 11.452565900396053, 47.345660399607823, 2695.99997650000023 ] } },
{ "type": "Feature", "properties": { "OBJECTID": 24, "F_id": 26863056.0, "F_lat": 47.7169424, "F_lon": 14.0632524, "name": "Großer Priel", "ele": "2515", "stat": "AUT" }, "geometry": { "type": "Point", "coordinates": [ 14.063252399678561, 47.716942400071787, 2514.99997650000023 ] } },
{ "type": "Feature", "properties": { "OBJECTID": 25, "F_id": 26863079.0, "F_lat": 47.2106339, "F_lon": 13.614977, "name": "Großes Gurpitscheck", "ele": "2526", "stat": "AUT" }, "geometry": { "type": "Point", "coordinates": [ 13.614976999888711, 47.210633899734717, 2525.99997650000023 ] } },
{ "type": "Feature", "properties": { "OBJECTID": 26, "F_id": 26863092.0, "F_lat": 46.8999105, "F_lon": 9.4672775, "name": "Haldensteiner Calanda", "ele": "2805", "stat": "CHE" }, "geometry": { "type": "Point", "coordinates": [ 9.467277500056639, 46.899910500269414, 2804.99997650000023 ] } },
{ "type": "Feature", "properties": { "OBJECTID": 27, "F_id": 26863172.0, "F_lat": 47.266271, "F_lon": 13.760642, "name": "Hochgolling", "ele": "2862", "stat": "AUT" }, "geometry": { "type": "Point", "coordinates": [ 13.760642000228188, 47.266271000406391, 2861.99997650000023 ] } },
{ "type": "Feature", "properties": { "OBJECTID": 28, "F_id": 26863176.0, "F_lat": 47.5693262, "F_lon": 12.8658126, "name": "Hochkalter", "ele": "2608", "stat": "DEU" }, "geometry": { "type": "Point", "coordinates": [ 12.865812600171409, 47.569326200044145, 2607.99997650000023 ] } },
{ "type": "Feature", "properties": { "OBJECTID": 29, "F_id": 26863179.0, "F_lat": 47.4203341, "F_lon": 13.0624483, "name": "Hochkönig", "ele": "2941", "stat": "AUT" }, "geometry": { "type": "Point", "coordinates": [ 13.062448299849223, 47.420334100238563, 2940.99997650000023 ] } },
{ "type": "Feature", "properties": { "OBJECTID": 30, "F_id": 26863185.0, "F_lat": 47.353134, "F_lon": 10.9883727, "name": "Hochplattig", "ele": "2768", "stat": "AUT" }, "geometry": { "type": "Point", "coordinates": [ 10.988372700040145, 47.353133999634451, 2767.99997650000023 ] } },
{ "type": "Feature", "properties": { "OBJECTID": 31, "F_id": 26863280.0, "F_lat": 46.4357277, "F_lon": 13.433915, "name": "Jôf di Montasio / Il Montâs / Špik nad Policami / Montasch", "ele": "2754", "stat": "ITA" }, "geometry": { "type": "Point", "coordinates": [ 13.433915000376999, 46.435727699673635, 2753.99997650000023 ] } },
{ "type": "Feature", "properties": { "OBJECTID": 32, "F_id": 26863316.0, "F_lat": 46.3601863, "F_lon": 13.4390201, "name": "Kanin / Canin / La Mont Cjanìne", "ele": "2587", "stat": "ITA" }, "geometry": { "type": "Point", "coordinates": [ 13.439020099997663, 46.360186299857901, 2586.99997650000023 ] } },
{ "type": "Feature", "properties": { "OBJECTID": 33, "F_id": 26863488.0, "F_lat": 46.23, "F_lon": 12.1822222, "name": "Monte Schiara", "ele": "2565", "stat": "ITA" }, "geometry": { "type": "Point", "coordinates": [ 12.182222199994555, 46.229999999800214, 2564.99997650000023 ] } },
{ "type": "Feature", "properties": { "OBJECTID": 34, "F_id": 26863517.0, "F_lat": 46.0541724, "F_lon": 7.110834, "name": "Le Catogne", "ele": "2598", "stat": "CHE" }, "geometry": { "type": "Point", "coordinates": [ 7.110833999889223, 46.054172399936363, 2597.99997650000023 ] } },
{ "type": "Feature", "properties": { "OBJECTID": 35, "F_id": 26863520.0, "F_lat": 44.9819478, "F_lon": 5.9344417, "name": "Le Grand Armet", "ele": "2792", "stat": "FRA" }, "geometry": { "type": "Point", "coordinates": [ 5.934441699724687, 44.981947799851127, 2791.99997650000023 ] } },
{ "type": "Feature", "properties": { "OBJECTID": 36, "F_id": 26863531.0, "F_lat": 45.643101, "F_lon": 6.6887164, "name": "Le Roignais", "ele": "2995", "stat": "FRA" }, "geometry": { "type": "Point", "coordinates": [ 6.688716399842008, 45.643100999911269, 2994.99997650000023 ] } },
{ "type": "Feature", "properties": { "OBJECTID": 37, "F_id": 26863534.0, "F_lat": 46.3822222, "F_lon": 7.1475, "name": "La Tarent", "ele": "2548.1", "stat": "CHE" }, "geometry": { "type": "Point", "coordinates": [ 7.147500000025047, 46.382222199994601, 2548.099976500000139 ] } },
{ "type": "Feature", "properties": { "OBJECTID": 38, "F_id": 26863582.0, "F_lat": 46.3667234, "F_lon": 8.8312903, "name": "Madone Grosso", "ele": "2746", "stat": "CHE" }, "geometry": { "type": "Point", "coordinates": [ 8.83129030040709, 46.366723399865066, 2745.99997650000023 ] } },
{ "type": "Feature", "properties": { "OBJECTID": 39, "F_id": 26863583.0, "F_lat": 46.9311111, "F_lon": 9.8722222, "name": "Madrisahorn", "ele": "2826", "stat": "CHE" }, "geometry": { "type": "Point", "coordinates": [ 9.872222200294345, 46.931111099997338, 2825.99997650000023 ] } },
{ "type": "Feature", "properties": { "OBJECTID": 40, "F_id": 26863733.0, "F_lat": 44.1739657, "F_lon": 7.6845227, "name": "Pointe Marguareis / Cima Marguareis", "ele": "2651", "stat": "FRA" }, "geometry": { "type": "Point", "coordinates": [ 7.684522699962656, 44.173965699557414, 2650.99997650000023 ] } },
{ "type": "Feature", "properties": { "OBJECTID": 41, "F_id": 26863736.0, "F_lat": 44.1543351, "F_lon": 6.9717064, "name": "Mont Mounier", "ele": "2817", "stat": "FRA" }, "geometry": { "type": "Point", "coordinates": [ 6.97170639993044, 44.154335100084836, 2816.99997650000023 ] } },
{ "type": "Feature", "properties": { "OBJECTID": 42, "F_id": 26863742.0, "F_lat": 44.1105097, "F_lon": 7.2021197, "name": "Mont Pépoiri", "ele": "2674", "stat": "FRA" }, "geometry": { "type": "Point", "coordinates": [ 7.202119700363937, 44.110509699662941, 2673.99997650000023 ] } },
{ "type": "Feature", "properties": { "OBJECTID": 43, "F_id": 26863799.0, "F_lat": 46.5125311, "F_lon": 12.5658983, "name": "Monte Brentoni (Cima di Mezzo)", "ele": "2545", "stat": "ITA" }, "geometry": { "type": "Point", "coordinates": [ 12.565898299866717, 46.512531100130218, 2544.99997650000023 ] } },
{ "type": "Feature", "properties": { "OBJECTID": 44, "F_id": 26863867.0, "F_lat": 46.0242578, "F_lon": 10.4488054, "name": "Monte Frisozzo", "ele": "2897", "stat": "ITA" }, "geometry": { "type": "Point", "coordinates": [ 10.448805399849391, 46.024257800157386, 2896.99997650000023 ] } },
{ "type": "Feature", "properties": { "OBJECTID": 45, "F_id": 26863928.0, "F_lat": 46.6296155, "F_lon": 12.7199201, "name": "Monte Peralba", "ele": "2694", "stat": "ITA" }, "geometry": { "type": "Point", "coordinates": [ 12.719920100132583, 46.629615500155239, 2693.99997650000023 ] } },
{ "type": "Feature", "properties": { "OBJECTID": 46, "F_id": 26863933.0, "F_lat": 46.5361065, "F_lon": 10.2275001, "name": "Monte Pettini", "ele": "2932", "stat": "ITA" }, "geometry": { "type": "Point", "coordinates": [ 10.227500100349403, 46.536106500214885, 2931.99997650000023 ] } },
{ "type": "Feature", "properties": { "OBJECTID": 47, "F_id": 26863982.0, "F_lat": 45.8730129, "F_lon": 7.9706991, "name": "Monte Tagliaferro", "ele": "2964", "stat": "ITA" }, "geometry": { "type": "Point", "coordinates": [ 7.97069909968377, 45.873012900425067, 2963.99997650000023 ] } },
{ "type": "Feature", "properties": { "OBJECTID": 48, "F_id": 26864008.0, "F_lat": 46.3541667, "F_lon": 8.7141667, "name": "Monte Zucchero", "ele": "2736", "stat": "CHE" }, "geometry": { "type": "Point", "coordinates": [ 8.714166699833356, 46.354166700332996, 2735.99997650000023 ] } },
{ "type": "Feature", "properties": { "OBJECTID": 49, "F_id": 26864010.0, "F_lat": 46.1852902, "F_lon": 10.398576, "name": "Monte Aviolo", "ele": "2881", "stat": "ITA" }, "geometry": { "type": "Point", "coordinates": [ 10.398575999982484, 46.185290199782969, 2880.99997650000023 ] } },
{ "type": "Feature", "properties": { "OBJECTID": 50, "F_id": 26864019.0, "F_lat": 47.2062367, "F_lon": 13.3957863, "name": "Mosermandl", "ele": "2680", "stat": "AUT" }, "geometry": { "type": "Point", "coordinates": [ 13.395786299698045, 47.206236699664032, 2679.99997650000023 ] } },
{ "type": "Feature", "properties": { "OBJECTID": 51, "F_id": 26864044.0, "F_lat": 47.3231897, "F_lon": 10.6414282, "name": "Namloser Wetterspitze", "ele": "2553", "stat": "AUT" }, "geometry": { "type": "Point", "coordinates": [ 10.641428199551797, 47.323189699744887, 2552.99997650000023 ] } },
{ "type": "Feature", "properties": { "OBJECTID": 52, "F_id": 26864221.0, "F_lat": 47.1719444, "F_lon": 10.0408333, "name": "Pfaffeneck", "ele": "2539", "stat": "AUT" }, "geometry": { "type": "Point", "coordinates": [ 10.040833300116731, 47.171944399814265, 2538.99997650000023 ] } },
{ "type": "Feature", "properties": { "OBJECTID": 53, "F_id": 26864231.0, "F_lat": 44.626659, "F_lon": 5.9350766, "name": "Pic de Bure", "ele": "2709", "stat": "FRA" }, "geometry": { "type": "Point", "coordinates": [ 5.935076600404841, 44.626659000012921, 2708.99997650000023 ] } },
{ "type": "Feature", "properties": { "OBJECTID": 54, "F_id": 26864251.0, "F_lat": 46.6725105, "F_lon": 12.1855479, "name": "Dürrenstein - Picco di Vallandro", "ele": "2839", "stat": "ITA" }, "geometry": { "type": "Point", "coordinates": [ 12.185547900115523, 46.672510499759824, 2838.99997650000023 ] } },
{ "type": "Feature", "properties": { "OBJECTID": 55, "F_id": 26864288.0, "F_lat": 46.6187514, "F_lon": 10.2909392, "name": "Piz Daint", "ele": "2968", "stat": "CHE" }, "geometry": { "type": "Point", "coordinates": [ 10.290939200183971, 46.618751400256997, 2967.99997650000023 ] } },
{ "type": "Feature", "properties": { "OBJECTID": 56, "F_id": 26864315.0, "F_lat": 45.9345913, "F_lon": 9.8158164, "name": "Pizzo Arera", "ele": "2512", "stat": "ITA" }, "geometry": { "type": "Point", "coordinates": [ 9.815816399607229, 45.934591300248371, 2511.99997650000023 ] } },
{ "type": "Feature", "properties": { "OBJECTID": 57, "F_id": 26864319.0, "F_lat": 46.5250591, "F_lon": 8.7678851, "name": "Pizzo del Sole", "ele": "2773", "stat": "CHE" }, "geometry": { "type": "Point", "coordinates": [ 8.767885099617729, 46.525059099597797, 2772.99997650000023 ] } },
{ "type": "Feature", "properties": { "OBJECTID": 58, "F_id": 26864320.0, "F_lat": 45.9565995, "F_lon": 10.0555039, "name": "Presolana Occidentale", "ele": "2521", "stat": "ITA" }, "geometry": { "type": "Point", "coordinates": [ 10.055503900184874, 45.956599500366679, 2520.99997650000023 ] } },
{ "type": "Feature", "properties": { "OBJECTID": 59, "F_id": 26864322.0, "F_lat": 46.2647222, "F_lon": 8.2380556, "name": "Pizzo Diei", "ele": "2905", "stat": "ITA" }, "geometry": { "type": "Point", "coordinates": [ 8.238055600085943, 46.264722199869709, 2904.99997650000023 ] } },
{ "type": "Feature", "properties": { "OBJECTID": 60, "F_id": 26864324.0, "F_lat": 46.1792743, "F_lon": 8.1965938, "name": "Pizzo Giezza", "ele": "2658", "stat": "ITA" }, "geometry": { "type": "Point", "coordinates": [ 8.196593799664186, 46.179274300068926, 2657.99997650000023 ] } },
{ "type": "Feature", "properties": { "OBJECTID": 61, "F_id": 26864345.0, "F_lat": 45.9557596, "F_lon": 6.5559471, "name": "Pointe Percée", "ele": "2750", "stat": "FRA" }, "geometry": { "type": "Point", "coordinates": [ 6.555947100278502, 45.955759600125475, 2749.99997650000023 ] } },
{ "type": "Feature", "properties": { "OBJECTID": 62, "F_id": 26864358.0, "F_lat": 46.4247004, "F_lon": 13.7697143, "name": "Prisank", "ele": "2547", "stat": "SVN" }, "geometry": { "type": "Point", "coordinates": [ 13.769714299875091, 46.424700399803669, 2546.99997650000023 ] } },
{ "type": "Feature", "properties": { "OBJECTID": 63, "F_id": 26864445.0, "F_lat": 47.2458277, "F_lon": 11.0589619, "name": "Rietzer Grießkogel", "ele": "2884", "stat": "AUT" }, "geometry": { "type": "Point", "coordinates": [ 11.058961900271527, 47.245827699788549, 2883.99997650000023 ] } },
{ "type": "Feature", "properties": { "OBJECTID": 64, "F_id": 26864459.0, "F_lat": 46.6887473, "F_lon": 12.2778058, "name": "Haunold - Rocca dei Baranci", "ele": "2966", "stat": "ITA" }, "geometry": { "type": "Point", "coordinates": [ 12.277805800097667, 46.688747299748115, 2965.99997650000023 ] } },
{ "type": "Feature", "properties": { "OBJECTID": 65, "F_id": 26864480.0, "F_lat": 46.25935, "F_lon": 8.5261731, "name": "Rosso di Ribia", "ele": "2541", "stat": "CHE" }, "geometry": { "type": "Point", "coordinates": [ 8.526173100108508, 46.25934999980268, 2540.99997650000023 ] } },
{ "type": "Feature", "properties": { "OBJECTID": 66, "F_id": 26864510.0, "F_lat": 47.249444, "F_lon": 9.343241, "name": "Säntis", "ele": "2502", "stat": "CHE" }, "geometry": { "type": "Point", "coordinates": [ 9.343240999772377, 47.249443999640903, 2501.99997650000023 ] } },
{ "type": "Feature", "properties": { "OBJECTID": 67, "F_id": 26864542.0, "F_lat": 46.1636111, "F_lon": 11.9252778, "name": "Sass di Mura", "ele": "2547", "stat": "ITA" }, "geometry": { "type": "Point", "coordinates": [ 11.925277800230333, 46.163611100272135, 2546.99997650000023 ] } },
{ "type": "Feature", "properties": { "OBJECTID": 68, "F_id": 26864546.0, "F_lat": 46.8879754, "F_lon": 8.7917306, "name": "Schächentaler Windgällen", "ele": "2764", "stat": "CHE" }, "geometry": { "type": "Point", "coordinates": [ 8.791730600286996, 46.887975400444418, 2763.99997650000023 ] } },
{ "type": "Feature", "properties": { "OBJECTID": 69, "F_id": 26864550.0, "F_lat": 47.0538123, "F_lon": 9.7074091, "name": "Schesaplana", "ele": "2965", "stat": "CHE" }, "geometry": { "type": "Point", "coordinates": [ 9.707409100249834, 47.053812300397396, 2964.99997650000023 ] } },
{ "type": "Feature", "properties": { "OBJECTID": 70, "F_id": 26864560.0, "F_lat": 46.6861093, "F_lon": 8.0755556, "name": "Schwarzhoren", "ele": "2927", "stat": "CHE" }, "geometry": { "type": "Point", "coordinates": [ 8.075555600410667, 46.686109300403928, 2926.99997650000023 ] } },
{ "type": "Feature", "properties": { "OBJECTID": 71, "F_id": 26864565.0, "F_lat": 46.6065207, "F_lon": 12.8607024, "name": "Monte Capolago / Seekopf", "ele": "2554", "stat": "ITA" }, "geometry": { "type": "Point", "coordinates": [ 12.860702399596107, 46.606520699570694, 2553.99997650000023 ] } },
{ "type": "Feature", "properties": { "OBJECTID": 72, "F_id": 26864590.0, "F_lat": 46.432805, "F_lon": 13.8209596, "name": "Škrlatica", "ele": "2740", "stat": "SVN" }, "geometry": { "type": "Point", "coordinates": [ 13.820959600005608, 46.432805000150665, 2739.99997650000023 ] } },
{ "type": "Feature", "properties": { "OBJECTID": 73, "F_id": 26864776.0, "F_lat": 46.7558333, "F_lon": 9.5122222, "name": "Stätzer Horn", "ele": "2574", "stat": "CHE" }, "geometry": { "type": "Point", "coordinates": [ 9.512222200294332, 46.755833299767005, 2573.99997650000023 ] } },
{ "type": "Feature", "properties": { "OBJECTID": 74, "F_id": 26864897.0, "F_lat": 46.2661111, "F_lon": 12.1558333, "name": "Talvena", "ele": "2542", "stat": "ITA" }, "geometry": { "type": "Point", "coordinates": [ 12.155833299667108, 46.266111100247144, 2541.99997650000023 ] } },
{ "type": "Feature", "properties": { "OBJECTID": 75, "F_id": 26864899.0, "F_lat": 46.3091792, "F_lon": 12.1212941, "name": "Tamer Grande", "ele": "2547", "stat": "ITA" }, "geometry": { "type": "Point", "coordinates": [ 12.121294099942816, 46.309179199560447, 2546.99997650000023 ] } },
{ "type": "Feature", "properties": { "OBJECTID": 76, "F_id": 26864908.0, "F_lat": 46.5269091, "F_lon": 12.6216336, "name": "Terza Grande", "ele": "2586", "stat": "ITA" }, "geometry": { "type": "Point", "coordinates": [ 12.621633600210544, 46.526909100374723, 2585.99997650000023 ] } },
{ "type": "Feature", "properties": { "OBJECTID": 77, "F_id": 26864912.0, "F_lat": 44.2862194, "F_lon": 6.504611, "name": "Tête de l'Estrop", "ele": "2962", "stat": "FRA" }, "geometry": { "type": "Point", "coordinates": [ 6.504611000097611, 44.286219400205198, 2961.99997650000023 ] } },
{ "type": "Feature", "properties": { "OBJECTID": 78, "F_id": 26864944.0, "F_lat": 46.343609, "F_lon": 9.0711183, "name": "Torent Alto", "ele": "2948", "stat": "CHE" }, "geometry": { "type": "Point", "coordinates": [ 9.071118300269404, 46.343609000355116, 2947.99997650000023 ] } },
{ "type": "Feature", "properties": { "OBJECTID": 79, "F_id": 26864958.0, "F_lat": 46.3782982, "F_lon": 13.8365822, "name": "Triglav", "ele": "2864", "stat": "SVN" }, "geometry": { "type": "Point", "coordinates": [ 13.836582199908662, 46.378298199802146, 2863.99997650000023 ] } },
{ "type": "Feature", "properties": { "OBJECTID": 80, "F_id": 26865019.0, "F_lat": 46.9373037, "F_lon": 10.1128802, "name": "Vallüla", "ele": "2813", "stat": "AUT" }, "geometry": { "type": "Point", "coordinates": [ 10.112880199761435, 46.937303700305563, 2812.99997650000023 ] } },
{ "type": "Feature", "properties": { "OBJECTID": 81, "F_id": 26865136.0, "F_lat": 47.2847695, "F_lon": 10.1293196, "name": "Widderstein", "ele": "2533", "stat": "AUT" }, "geometry": { "type": "Point", "coordinates": [ 10.129319599919654, 47.284769500012487, 2532.99997650000023 ] } },
{ "type": "Feature", "properties": { "OBJECTID": 82, "F_id": 26865160.0, "F_lat": 47.0913617, "F_lon": 9.7889005, "name": "Zimba", "ele": "2643", "stat": "AUT" }, "geometry": { "type": "Point", "coordinates": [ 9.788900500157979, 47.091361700082473, 2642.99997650000023 ] } },
{ "type": "Feature", "properties": { "OBJECTID": 83, "F_id": 27384190.0, "F_lat": 47.421215, "F_lon": 10.986297, "name": "Zugspitze", "ele": "2962", "stat": "DEU" }, "geometry": { "type": "Point", "coordinates": [ 10.986297000006573, 47.421214999672543, 2961.99997650000023 ] } },
{ "type": "Feature", "properties": { "OBJECTID": 84, "F_id": 29867982.0, "F_lat": 47.1237732, "F_lon": 12.8314232, "name": "Edelweißspitze", "ele": "2572", "stat": "AUT" }, "geometry": { "type": "Point", "coordinates": [ 12.831423199621042, 47.123773200073174, 2571.99997650000023 ] } },
{ "type": "Feature", "properties": { "OBJECTID": 85, "F_id": 206140857.0, "F_lat": 46.1858389, "F_lon": 10.6065157, "name": "Corno del Menicìgolo", "ele": "2687", "stat": "ITA" }, "geometry": { "type": "Point", "coordinates": [ 10.606515700239413, 46.185838900444935, 2686.99997650000023 ] } },
{ "type": "Feature", "properties": { "OBJECTID": 86, "F_id": 246541691.0, "F_lat": 47.3313983, "F_lon": 10.451459, "name": "Woleggleskarspitze", "ele": "2522", "stat": "AUT" }, "geometry": { "type": "Point", "coordinates": [ 10.45145899973312, 47.331398300391299, 2521.99997650000023 ] } },
{ "type": "Feature", "properties": { "OBJECTID": 87, "F_id": 246553311.0, "F_lat": 47.3258196, "F_lon": 10.4410805, "name": "Noppenspitze", "ele": "2594", "stat": "AUT" }, "geometry": { "type": "Point", "coordinates": [ 10.44108049956543, 47.325819599794727, 2593.99997650000023 ] } },
{ "type": "Feature", "properties": { "OBJECTID": 88, "F_id": 249419777.0, "F_lat": 47.1494581, "F_lon": 10.2218292, "name": "Schindlerspitze", "ele": "2648", "stat": "AUT" }, "geometry": { "type": "Point", "coordinates": [ 10.221829200357377, 47.149458100311108, 2647.99997650000023 ] } },
{ "type": "Feature", "properties": { "OBJECTID": 89, "F_id": 250067356.0, "F_lat": 47.0793072, "F_lon": 10.1001147, "name": "Östliche Eisentaler Spitze", "ele": "2753", "stat": "AUT" }, "geometry": { "type": "Point", "coordinates": [ 10.100114700133361, 47.079307199967332, 2752.99997650000023 ] } },
{ "type": "Feature", "properties": { "OBJECTID": 90, "F_id": 250067524.0, "F_lat": 47.0638876, "F_lon": 10.1346157, "name": "Gaflunakopf", "ele": "2676", "stat": "AUT" }, "geometry": { "type": "Point", "coordinates": [ 10.134615700254415, 47.063887600432452, 2675.99997650000023 ] } },
{ "type": "Feature", "properties": { "OBJECTID": 91, "F_id": 250067547.0, "F_lat": 47.061067, "F_lon": 10.145947, "name": "Pfannseekopf", "ele": "2611", "stat": "AUT" }, "geometry": { "type": "Point", "coordinates": [ 10.145946999754301, 47.061067000042044, 2610.99997650000023 ] } },
{ "type": "Feature", "properties": { "OBJECTID": 92, "F_id": 250155113.0, "F_lat": 46.0989462, "F_lon": 7.2697869, "name": "Attelas", "ele": "2727", "stat": "CHE" }, "geometry": { "type": "Point", "coordinates": [ 7.269786899845599, 46.098946200207024, 2726.99997650000023 ] } },
{ "type": "Feature", "properties": { "OBJECTID": 93, "F_id": 250155114.0, "F_lat": 46.1035489, "F_lon": 7.2790726, "name": "Chassoure", "ele": "2740", "stat": "CHE" }, "geometry": { "type": "Point", "coordinates": [ 7.279072599620804, 46.103548899861892, 2739.99997650000023 ] } },
{ "type": "Feature", "properties": { "OBJECTID": 94, "F_id": 252224664.0, "F_lat": 45.3524661, "F_lon": 6.1978852, "name": "Pic du Frêne", "ele": "2807", "stat": "FRA" }, "geometry": { "type": "Point", "coordinates": [ 6.197885200441704, 45.352466099630874, 2806.99997650000023 ] } },
{ "type": "Feature", "properties": { "OBJECTID": 95, "F_id": 255973617.0, "F_lat": 47.3027047, "F_lon": 11.3076615, "name": "Großer Solstein", "ele": "2541", "stat": "AUT" }, "geometry": { "type": "Point", "coordinates": [ 11.30766149987835, 47.302704700261756, 2540.99997650000023 ] } },
{ "type": "Feature", "properties": { "OBJECTID": 96, "F_id": 256041591.0, "F_lat": 47.1292231, "F_lon": 11.9178032, "name": "Ahornspitze", "ele": "2976", "stat": "AUT" }, "geometry": { "type": "Point", "coordinates": [ 11.917803200157607, 47.129223099766307, 2975.99997650000023 ] } },
{ "type": "Feature", "properties": { "OBJECTID": 97, "F_id": 256041659.0, "F_lat": 47.2921766, "F_lon": 10.2877037, "name": "Bockkarkopf", "ele": "2609", "stat": "AUT" }, "geometry": { "type": "Point", "coordinates": [ 10.287703700265581, 47.29217659967037, 2608.99997650000023 ] } },
{ "type": "Feature", "properties": { "OBJECTID": 98, "F_id": 256041661.0, "F_lat": 47.1726022, "F_lon": 11.9622122, "name": "Brandberger Kolm", "ele": "2700", "stat": "AUT" }, "geometry": { "type": "Point", "coordinates": [ 11.962212200332829, 47.172602199931646, 2699.99997650000023 ] } },
{ "type": "Feature", "properties": { "OBJECTID": 99, "F_id": 256041672.0, "F_lat": 47.1661288, "F_lon": 10.4730254, "name": "Dawinkopf", "ele": "2968", "stat": "AUT" }, "geometry": { "type": "Point", "coordinates": [ 10.473025399802395, 47.166128799804312, 2967.99997650000023 ] } },
{ "type": "Feature", "properties": { "OBJECTID": 100, "F_id": 256041673.0, "F_lat": 47.4004814, "F_lon": 11.1239474, "name": "Leutascher Dreitorspitze", "ele": "2682", "stat": "DEU" }, "geometry": { "type": "Point", "coordinates": [ 11.12394739965282, 47.400481399696901, 2681.99997650000023 ] } },
{ "type": "Feature", "properties": { "OBJECTID": 101, "F_id": 256041682.0, "F_lat": 47.1633205, "F_lon": 10.4469155, "name": "Eisenspitze-Nordgipfel", "ele": "2838", "stat": "AUT" }, "geometry": { "type": "Point", "coordinates": [ 10.44691549975056, 47.163320500340888, 2837.99997650000023 ] } },
{ "type": "Feature", "properties": { "OBJECTID": 102, "F_id": 256041729.0, "F_lat": 47.2679709, "F_lon": 11.7430179, "name": "Gilfert", "ele": "2506", "stat": "AUT" }, "geometry": { "type": "Point", "coordinates": [ 11.743017900156019, 47.267970899837223, 2505.99997650000023 ] } },
{ "type": "Feature", "properties": { "OBJECTID": 103, "F_id": 256041731.0, "F_lat": 47.1732212, "F_lon": 10.4893047, "name": "Gatschkopf", "ele": "2945", "stat": "AUT" }, "geometry": { "type": "Point", "coordinates": [ 10.489304699952015, 47.173221199698673, 2944.99997650000023 ] } },
{ "type": "Feature", "properties": { "OBJECTID": 104, "F_id": 256041742.0, "F_lat": 47.2075977, "F_lon": 11.5283837, "name": "Glungezer", "ele": "2677", "stat": "AUT" }, "geometry": { "type": "Point", "coordinates": [ 11.528383699648089, 47.20759770037364, 2676.99997650000023 ] } },
{ "type": "Feature", "properties": { "OBJECTID": 105, "F_id": 256041751.0, "F_lat": 47.3141753, "F_lon": 10.7328934, "name": "Heiterwand", "ele": "2639", "stat": "AUT" }, "geometry": { "type": "Point", "coordinates": [ 10.732893400210287, 47.314175300249985, 2638.99997650000023 ] } },
{ "type": "Feature", "properties": { "OBJECTID": 106, "F_id": 256041781.0, "F_lat": 47.2969091, "F_lon": 10.2930007, "name": "Hochfrottspitze", "ele": "2649", "stat": "DEU" }, "geometry": { "type": "Point", "coordinates": [ 10.293000699922402, 47.296909100274831, 2648.99997650000023 ] } },
{ "type": "Feature", "properties": { "OBJECTID": 107, "F_id": 256041782.0, "F_lat": 47.3961111, "F_lon": 11.0758333, "name": "Hinterreintalschrofen", "ele": "2670", "stat": "AUT" }, "geometry": { "type": "Point", "coordinates": [ 11.075833299667067, 47.396111100147209, 2669.99997650000023 ] } },
{ "type": "Feature", "properties": { "OBJECTID": 108, "F_id": 256041817.0, "F_lat": 47.2674515, "F_lon": 10.65172, "name": "Imster Muttekopf", "ele": "2774", "stat": "AUT" }, "geometry": { "type": "Point", "coordinates": [ 10.651719999678278, 47.267451499986805, 2773.99997650000023 ] } },
{ "type": "Feature", "properties": { "OBJECTID": 109, "F_id": 256041828.0, "F_lat": 47.3673266, "F_lon": 11.617999, "name": "Hochnissl", "ele": "2546", "stat": "AUT" }, "geometry": { "type": "Point", "coordinates": [ 11.61799900025369, 47.367326600142519, 2545.99997650000023 ] } },
{ "type": "Feature", "properties": { "OBJECTID": 110, "F_id": 256041848.0, "F_lat": 46.6755556, "F_lon": 12.5241667, "name": "Große Kinigat / Monte Cavallino", "ele": "2689", "stat": "ITA" }, "geometry": { "type": "Point", "coordinates": [ 12.524166700133151, 46.675555599711231, 2688.99997650000023 ] } },
{ "type": "Feature", "properties": { "OBJECTID": 111, "F_id": 256041855.0, "F_lat": 47.0865075, "F_lon": 10.1382648, "name": "Kaltenberg", "ele": "2896", "stat": "AUT" }, "geometry": { "type": "Point", "coordinates": [ 10.138264800180423, 47.086507499621462, 2895.99997650000023 ] } },
{ "type": "Feature", "properties": { "OBJECTID": 112, "F_id": 256041882.0, "F_lat": 47.2514939, "F_lon": 11.9826003, "name": "Kreuzjoch", "ele": "2558", "stat": "AUT" }, "geometry": { "type": "Point", "coordinates": [ 11.982600299664171, 47.251493899923616, 2557.99997650000023 ] } },
{ "type": "Feature", "properties": { "OBJECTID": 113, "F_id": 256041891.0, "F_lat": 47.3151318, "F_lon": 10.3744164, "name": "Marchspitze", "ele": "2609", "stat": "AUT" }, "geometry": { "type": "Point", "coordinates": [ 10.374416400296695, 47.31513180029242, 2608.99997650000023 ] } },
{ "type": "Feature", "properties": { "OBJECTID": 114, "F_id": 256041922.0, "F_lat": 47.2999249, "F_lon": 10.2956802, "name": "Mädelegabel", "ele": "2644", "stat": "AUT" }, "geometry": { "type": "Point", "coordinates": [ 10.295680200281083, 47.299924900313954, 2643.99997650000023 ] } },
{ "type": "Feature", "properties": { "OBJECTID": 115, "F_id": 256041930.0, "F_lat": 47.3955556, "F_lon": 11.1038889, "name": "Oberreintalschrofen", "ele": "2523", "stat": "AUT" }, "geometry": { "type": "Point", "coordinates": [ 11.103888900052766, 47.395555599711201, 2522.99997650000023 ] } },
{ "type": "Feature", "properties": { "OBJECTID": 116, "F_id": 256041952.0, "F_lat": 47.2801709, "F_lon": 10.2760287, "name": "Hohes Licht", "ele": "2651", "stat": "AUT" }, "geometry": { "type": "Point", "coordinates": [ 10.276028699664835, 47.280170900366784, 2650.99997650000023 ] } },
{ "type": "Feature", "properties": { "OBJECTID": 117, "F_id": 256041976.0, "F_lat": 47.3462065, "F_lon": 11.0812091, "name": "Hohe Munde Ostgipfel", "ele": "2592", "stat": "AUT" }, "geometry": { "type": "Point", "coordinates": [ 11.08120909972024, 47.346206500329799, 2591.99997650000023 ] } },
{ "type": "Feature", "properties": { "OBJECTID": 118, "F_id": 256041991.0, "F_lat": 47.204304, "F_lon": 11.7508806, "name": "Rastkogel", "ele": "2762", "stat": "AUT" }, "geometry": { "type": "Point", "coordinates": [ 11.750880599959771, 47.204303999929721, 2761.99997650000023 ] } },
{ "type": "Feature", "properties": { "OBJECTID": 119, "F_id": 256042009.0, "F_lat": 46.8928601, "F_lon": 10.1115262, "name": "Hohes Rad", "ele": "2934", "stat": "AUT" }, "geometry": { "type": "Point", "coordinates": [ 10.111526200274, 46.892860099613983, 2933.99997650000023 ] } },
{ "type": "Feature", "properties": { "OBJECTID": 120, "F_id": 256042743.0, "F_lat": 47.0501914, "F_lon": 12.2876843, "name": "Rostocker Eck", "ele": "2749", "stat": "AUT" }, "geometry": { "type": "Point", "coordinates": [ 12.287684299690738, 47.050191399613482, 2748.99997650000023 ] } },
{ "type": "Feature", "properties": { "OBJECTID": 121, "F_id": 256042745.0, "F_lat": 47.0397249, "F_lon": 12.3498374, "name": "Rote Säule", "ele": "2820", "stat": "AUT" }, "geometry": { "type": "Point", "coordinates": [ 12.349837399576359, 47.039724899884277, 2819.99997650000023 ] } },
{ "type": "Feature", "properties": { "OBJECTID": 122, "F_id": 256042763.0, "F_lat": 47.2490671, "F_lon": 10.6154437, "name": "Große Schlenkerspitze", "ele": "2827", "stat": "AUT" }, "geometry": { "type": "Point", "coordinates": [ 10.615443700066749, 47.249067100066668, 2826.99997650000023 ] } },
{ "type": "Feature", "properties": { "OBJECTID": 123, "F_id": 256042768.0, "F_lat": 47.4095968, "F_lon": 10.9699595, "name": "Schneefernerkopf", "ele": "2874", "stat": "AUT" }, "geometry": { "type": "Point", "coordinates": [ 10.9699595002308, 47.409596800252189, 2873.99997650000023 ] } },
{ "type": "Feature", "properties": { "OBJECTID": 124, "F_id": 256042792.0, "F_lat": 47.0334776, "F_lon": 10.773395, "name": "Schweikert", "ele": "2881", "stat": "AUT" }, "geometry": { "type": "Point", "coordinates": [ 10.773394999879372, 47.033477600111212, 2880.99997650000023 ] } },
{ "type": "Feature", "properties": { "OBJECTID": 125, "F_id": 256042801.0, "F_lat": 47.1239628, "F_lon": 11.3813481, "name": "Serles", "ele": "2717", "stat": "AUT" }, "geometry": { "type": "Point", "coordinates": [ 11.381348100134744, 47.12396279964355, 2716.99997650000023 ] } },
{ "type": "Feature", "properties": { "OBJECTID": 126, "F_id": 256042831.0, "F_lat": 46.995677, "F_lon": 11.1603469, "name": "Großer Trögler", "ele": "2902", "stat": "AUT" }, "geometry": { "type": "Point", "coordinates": [ 11.160346900089394, 46.995676999993634, 2901.99997650000023 ] } },
{ "type": "Feature", "properties": { "OBJECTID": 127, "F_id": 256042835.0, "F_lat": 47.3368069, "F_lon": 10.4684011, "name": "Urbeleskarspitze", "ele": "2631", "stat": "AUT" }, "geometry": { "type": "Point", "coordinates": [ 10.468401100230665, 47.33680689961875, 2630.99997650000023 ] } },
{ "type": "Feature", "properties": { "OBJECTID": 128, "F_id": 256042837.0, "F_lat": 46.9232667, "F_lon": 10.2909586, "name": "Piz Val Gronda", "ele": "2812", "stat": "CHE" }, "geometry": { "type": "Point", "coordinates": [ 10.290958600359147, 46.923266699598571, 2811.99997650000023 ] } },
{ "type": "Feature", "properties": { "OBJECTID": 129, "F_id": 256042844.0, "F_lat": 47.3015941, "F_lon": 11.3334901, "name": "Hohe Warte", "ele": "2596", "stat": "AUT" }, "geometry": { "type": "Point", "coordinates": [ 11.333490100088113, 47.301594099588101, 2595.99997650000023 ] } },
{ "type": "Feature", "properties": { "OBJECTID": 130, "F_id": 256042846.0, "F_lat": 47.1848898, "F_lon": 10.3671263, "name": "Vorderseespitze", "ele": "2889", "stat": "AUT" }, "geometry": { "type": "Point", "coordinates": [ 10.36712629973897, 47.184889799824475, 2888.99997650000023 ] } },
{ "type": "Feature", "properties": { "OBJECTID": 131, "F_id": 256042854.0, "F_lat": 47.4007961, "F_lon": 10.9703511, "name": "Südliche Wetterspitze", "ele": "2746", "stat": "AUT" }, "geometry": { "type": "Point", "coordinates": [ 10.970351100123196, 47.400796100359798, 2745.99997650000023 ] } },
{ "type": "Feature", "properties": { "OBJECTID": 132, "F_id": 256042875.0, "F_lat": 47.0766522, "F_lon": 11.2995344, "name": "Zwölferspitze", "ele": "2562", "stat": "AUT" }, "geometry": { "type": "Point", "coordinates": [ 11.299534400292373, 47.076652199839202, 2561.99997650000023 ] } },
{ "type": "Feature", "properties": { "OBJECTID": 133, "F_id": 256042876.0, "F_lat": 46.9556731, "F_lon": 12.5152465, "name": "Großer Zunig", "ele": "2776", "stat": "AUT" }, "geometry": { "type": "Point", "coordinates": [ 12.515246500125954, 46.955673100433273, 2775.99997650000023 ] } },
{ "type": "Feature", "properties": { "OBJECTID": 134, "F_id": 256057458.0, "F_lat": 47.0553121, "F_lon": 10.9969684, "name": "Gamskogel", "ele": "2813", "stat": "AUT" }, "geometry": { "type": "Point", "coordinates": [ 10.996968400371429, 47.05531209977363, 2812.99997650000023 ] } },
{ "type": "Feature", "properties": { "OBJECTID": 135, "F_id": 259486622.0, "F_lat": 47.4294968, "F_lon": 11.0478118, "name": "Alpspitze", "ele": "2628", "stat": "DEU" }, "geometry": { "type": "Point", "coordinates": [ 11.047811799774763, 47.429496799737592, 2627.99997650000023 ] } },
{ "type": "Feature", "properties": { "OBJECTID": 136, "F_id": 262273912.0, "F_lat": 46.8641207, "F_lon": 10.1264589, "name": "Vermuntkopf", "ele": "2851", "stat": "AUT" }, "geometry": { "type": "Point", "coordinates": [ 10.12645889965853, 46.864120699710554, 2850.99997650000023 ] } },
{ "type": "Feature", "properties": { "OBJECTID": 137, "F_id": 262497471.0, "F_lat": 46.3271511, "F_lon": 7.202437, "name": "Scex Rouge", "ele": "2971", "stat": "CHE" }, "geometry": { "type": "Point", "coordinates": [ 7.202437000067562, 46.327151100243157, 2970.99997650000023 ] } },
{ "type": "Feature", "properties": { "OBJECTID": 138, "F_id": 262501283.0, "F_lat": 46.3094769, "F_lon": 7.2247301, "name": "Quille du Diable ou Tour Saint-Martin", "ele": "2908", "stat": "CHE" }, "geometry": { "type": "Point", "coordinates": [ 7.224730100014142, 46.309476900338723, 2907.99997650000023 ] } },
{ "type": "Feature", "properties": { "OBJECTID": 139, "F_id": 262875534.0, "F_lat": 46.7429325, "F_lon": 9.5970634, "name": "Parpaner Rothorn", "ele": "2861", "stat": "CHE" }, "geometry": { "type": "Point", "coordinates": [ 9.597063400355694, 46.742932499835035, 2860.99997650000023 ] } },
{ "type": "Feature", "properties": { "OBJECTID": 140, "F_id": 262876689.0, "F_lat": 46.7590938, "F_lon": 9.6020134, "name": "Parpaner Weisshorn", "ele": "2775", "stat": "CHE" }, "geometry": { "type": "Point", "coordinates": [ 9.602013400198302, 46.759093799938967, 2774.99997650000023 ] } },
{ "type": "Feature", "properties": { "OBJECTID": 141, "F_id": 262876715.0, "F_lat": 46.7746005, "F_lon": 9.5964737, "name": "Parpaner Schwarzhorn", "ele": "2683", "stat": "CHE" }, "geometry": { "type": "Point", "coordinates": [ 9.596473699601631, 46.774600499713358, 2682.99997650000023 ] } },
{ "type": "Feature", "properties": { "OBJECTID": 142, "F_id": 271904229.0, "F_lat": 46.5572822, "F_lon": 7.8351745, "name": "Schilthorn", "ele": "2973", "stat": "CHE" }, "geometry": { "type": "Point", "coordinates": [ 7.8351745004029, 46.557282199713825, 2972.99997650000023 ] } },
{ "type": "Feature", "properties": { "OBJECTID": 143, "F_id": 279142064.0, "F_lat": 46.6488152, "F_lon": 8.3337816, "name": "Ofenhoren", "ele": "2943", "stat": "CHE" }, "geometry": { "type": "Point", "coordinates": [ 8.333781599741087, 46.648815200261311, 2942.99997650000023 ] } },
{ "type": "Feature", "properties": { "OBJECTID": 144, "F_id": 279835477.0, "F_lat": 46.5631204, "F_lon": 11.8352476, "name": "Sass da Ciampac", "ele": "2667", "stat": "ITA" }, "geometry": { "type": "Point", "coordinates": [ 11.835247600096693, 46.563120399686738, 2666.99997650000023 ] } },
{ "type": "Feature", "properties": { "OBJECTID": 145, "F_id": 279836254.0, "F_lat": 46.5945886, "F_lon": 11.8482211, "name": "Piza de Gherdenacia", "ele": "2673", "stat": "ITA" }, "geometry": { "type": "Point", "coordinates": [ 11.848221100323542, 46.594588599884048, 2672.99997650000023 ] } },
{ "type": "Feature", "properties": { "OBJECTID": 146, "F_id": 279905810.0, "F_lat": 47.0669326, "F_lon": 12.8608813, "name": "Schareck", "ele": "2606", "stat": "AUT" }, "geometry": { "type": "Point", "coordinates": [ 12.860881299932089, 47.066932599659822, 2605.99997650000023 ] } },
{ "type": "Feature", "properties": { "OBJECTID": 147, "F_id": 280112011.0, "F_lat": 46.8337629, "F_lon": 9.0703575, "name": "Crap Tgietschen", "ele": "2583", "stat": "CHE" }, "geometry": { "type": "Point", "coordinates": [ 9.070357499898762, 46.833762899638145, 2582.99997650000023 ] } },
{ "type": "Feature", "properties": { "OBJECTID": 148, "F_id": 280112966.0, "F_lat": 46.8173374, "F_lon": 9.0199219, "name": "Kistenstöckli", "ele": "2746", "stat": "CHE" }, "geometry": { "type": "Point", "coordinates": [ 9.01992189987584, 46.817337400300858, 2745.99997650000023 ] } },
{ "type": "Feature", "properties": { "OBJECTID": 149, "F_id": 281163095.0, "F_lat": 46.1994171, "F_lon": 11.5107524, "name": "Cima delle Stellune", "ele": "2605", "stat": "ITA" }, "geometry": { "type": "Point", "coordinates": [ 11.510752400103229, 46.199417100318954, 2604.99997650000023 ] } },
{ "type": "Feature", "properties": { "OBJECTID": 150, "F_id": 281340178.0, "F_lat": 47.2556097, "F_lon": 10.445962, "name": "Ruitelspitze", "ele": "2580", "stat": "AUT" }, "geometry": { "type": "Point", "coordinates": [ 10.445961999846475, 47.255609700327454, 2579.99997650000023 ] } },
{ "type": "Feature", "properties": { "OBJECTID": 151, "F_id": 281340201.0, "F_lat": 47.2508184, "F_lon": 10.4649844, "name": "Zwölferspitze", "ele": "2594", "stat": "AUT" }, "geometry": { "type": "Point", "coordinates": [ 10.464984400409776, 47.250818400249045, 2593.99997650000023 ] } },
{ "type": "Feature", "properties": { "OBJECTID": 152, "F_id": 281366656.0, "F_lat": 46.6451816, "F_lon": 10.2105038, "name": "Munt la Schera", "ele": "2587", "stat": "CHE" }, "geometry": { "type": "Point", "coordinates": [ 10.210503800410095, 46.645181600150806, 2586.99997650000023 ] } },
{ "type": "Feature", "properties": { "OBJECTID": 153, "F_id": 281604035.0, "F_lat": 47.018871, "F_lon": 12.60746, "name": "Blauspitze", "ele": "2575", "stat": "AUT" }, "geometry": { "type": "Point", "coordinates": [ 12.607459999679293, 47.018871000296485, 2574.99997650000023 ] } },
{ "type": "Feature", "properties": { "OBJECTID": 154, "F_id": 281759452.0, "F_lat": 46.9459145, "F_lon": 12.4186206, "name": "Speikboden", "ele": "2653", "stat": "AUT" }, "geometry": { "type": "Point", "coordinates": [ 12.418620600160637, 46.945914500254048, 2652.99997650000023 ] } },
{ "type": "Feature", "properties": { "OBJECTID": 155, "F_id": 281759496.0, "F_lat": 46.9472845, "F_lon": 12.4273937, "name": "Donnerstein", "ele": "2725", "stat": "AUT" }, "geometry": { "type": "Point", "coordinates": [ 12.427393699859408, 46.947284499580064, 2724.99997650000023 ] } },
{ "type": "Feature", "properties": { "OBJECTID": 156, "F_id": 282202699.0, "F_lat": 46.2168382, "F_lon": 11.5446191, "name": "Cimon di Lasteolo", "ele": "2560", "stat": "ITA" }, "geometry": { "type": "Point", "coordinates": [ 11.5446191002913, 46.216838200422671, 2559.99997650000023 ] } },
{ "type": "Feature", "properties": { "OBJECTID": 157, "F_id": 282202872.0, "F_lat": 46.2253087, "F_lon": 11.558882, "name": "Cima Litegosa", "ele": "2549", "stat": "ITA" }, "geometry": { "type": "Point", "coordinates": [ 11.558881999904429, 46.22530869983666, 2548.99997650000023 ] } },
{ "type": "Feature", "properties": { "OBJECTID": 158, "F_id": 282782780.0, "F_lat": 47.0194784, "F_lon": 12.6025718, "name": "Blauer Knopf", "ele": "2593", "stat": "AUT" }, "geometry": { "type": "Point", "coordinates": [ 12.602571800348358, 47.019478399708419, 2592.99997650000023 ] } },
{ "type": "Feature", "properties": { "OBJECTID": 159, "F_id": 283326629.0, "F_lat": 46.8660274, "F_lon": 10.169851, "name": "Rußkopf", "ele": "2693", "stat": "AUT" }, "geometry": { "type": "Point", "coordinates": [ 10.169851000423364, 46.866027400044516, 2692.99997650000023 ] } },
{ "type": "Feature", "properties": { "OBJECTID": 160, "F_id": 284780608.0, "F_lat": 47.2324241, "F_lon": 10.1021826, "name": "Mohnenfluh", "ele": "2542", "stat": "AUT" }, "geometry": { "type": "Point", "coordinates": [ 10.102182600346794, 47.23242409969248, 2541.99997650000023 ] } },
{ "type": "Feature", "properties": { "OBJECTID": 161, "F_id": 286281497.0, "F_lat": 46.3810697, "F_lon": 11.5750434, "name": "Cimon del Latemar - Diamantiditurm", "ele": "2842", "stat": "ITA" }, "geometry": { "type": "Point", "coordinates": [ 11.575043399833078, 46.381069699906789, 2841.99997650000023 ] } },
{ "type": "Feature", "properties": { "OBJECTID": 162, "F_id": 286281609.0, "F_lat": 46.3825989, "F_lon": 11.5839568, "name": "Schenòn del Latemar - Östliche Latemarspitze", "ele": "2801", "stat": "ITA" }, "geometry": { "type": "Point", "coordinates": [ 11.583956800066346, 46.382598899919344, 2800.99997650000023 ] } },
{ "type": "Feature", "properties": { "OBJECTID": 163, "F_id": 286472390.0, "F_lat": 47.2982864, "F_lon": 10.6746367, "name": "Maldongrat", "ele": "2544", "stat": "AUT" }, "geometry": { "type": "Point", "coordinates": [ 10.674636700323504, 47.298286400297172, 2543.99997650000023 ] } },
{ "type": "Feature", "properties": { "OBJECTID": 164, "F_id": 286930120.0, "F_lat": 46.8618147, "F_lon": 8.5351237, "name": "Urirotstock", "ele": "2928", "stat": "CHE" }, "geometry": { "type": "Point", "coordinates": [ 8.535123699898861, 46.861814700388152, 2927.99997650000023 ] } },
{ "type": "Feature", "properties": { "OBJECTID": 165, "F_id": 286930127.0, "F_lat": 46.6351979, "F_lon": 8.6509407, "name": "Rossbodenstock", "ele": "2837", "stat": "CHE" }, "geometry": { "type": "Point", "coordinates": [ 8.650940699753562, 46.63519789966341, 2836.99997650000023 ] } },
{ "type": "Feature", "properties": { "OBJECTID": 166, "F_id": 286930134.0, "F_lat": 46.6805738, "F_lon": 8.5297718, "name": "Salbitschijen", "ele": "2981", "stat": "CHE" }, "geometry": { "type": "Point", "coordinates": [ 8.529771800228445, 46.680573799641195, 2980.99997650000023 ] } },
{ "type": "Feature", "properties": { "OBJECTID": 167, "F_id": 286930138.0, "F_lat": 46.5681291, "F_lon": 8.4413956, "name": "Stotzigen Firsten", "ele": "2759", "stat": "CHE" }, "geometry": { "type": "Point", "coordinates": [ 8.441395599927034, 46.568129100077954, 2758.99997650000023 ] } },
{ "type": "Feature", "properties": { "OBJECTID": 168, "F_id": 286930139.0, "F_lat": 46.860466, "F_lon": 8.9178141, "name": "Gämsfairenstock", "ele": "2972", "stat": "CHE" }, "geometry": { "type": "Point", "coordinates": [ 8.917814099641021, 46.86046599970615, 2971.99997650000023 ] } },
{ "type": "Feature", "properties": { "OBJECTID": 169, "F_id": 288112683.0, "F_lat": 47.462696, "F_lon": 13.667663, "name": "Landfriedstein", "ele": "2536", "stat": "AUT" }, "geometry": { "type": "Point", "coordinates": [ 13.667663000447135, 47.462695999720665, 2535.99997650000023 ] } },
{ "type": "Feature", "properties": { "OBJECTID": 170, "F_id": 288112891.0, "F_lat": 47.296192, "F_lon": 13.817173, "name": "Waldhorn", "ele": "2702", "stat": "AUT" }, "geometry": { "type": "Point", "coordinates": [ 13.817173000033961, 47.296191999761049, 2701.99997650000023 ] } },
{ "type": "Feature", "properties": { "OBJECTID": 171, "F_id": 288112919.0, "F_lat": 47.2932029, "F_lon": 13.825343, "name": "Kieseck", "ele": "2681", "stat": "AUT" }, "geometry": { "type": "Point", "coordinates": [ 13.825342999979512, 47.293202899694109, 2680.99997650000023 ] } },
{ "type": "Feature", "properties": { "OBJECTID": 172, "F_id": 290267150.0, "F_lat": 47.2230014, "F_lon": 11.1538119, "name": "Roßkogel", "ele": "2646", "stat": "AUT" }, "geometry": { "type": "Point", "coordinates": [ 11.153811899999255, 47.22300139989477, 2645.99997650000023 ] } },
{ "type": "Feature", "properties": { "OBJECTID": 173, "F_id": 290267206.0, "F_lat": 47.2198453, "F_lon": 11.148373, "name": "Weißstein", "ele": "2640", "stat": "AUT" }, "geometry": { "type": "Point", "coordinates": [ 11.148372999914045, 47.21984530022047, 2639.99997650000023 ] } },
{ "type": "Feature", "properties": { "OBJECTID": 174, "F_id": 290497884.0, "F_lat": 45.9966146, "F_lon": 7.0644179, "name": "Petit Clocher du Portalet", "ele": "2811", "stat": "CHE" }, "geometry": { "type": "Point", "coordinates": [ 7.064417899966145, 45.996614600083774, 2810.99997650000023 ] } },
{ "type": "Feature", "properties": { "OBJECTID": 175, "F_id": 291405646.0, "F_lat": 47.267543, "F_lon": 13.998441, "name": "Süssleiteck", "ele": "2507", "stat": "AUT" }, "geometry": { "type": "Point", "coordinates": [ 13.998441000052139, 47.267542999709747, 2506.99997650000023 ] } },
{ "type": "Feature", "properties": { "OBJECTID": 176, "F_id": 292160947.0, "F_lat": 47.0135928, "F_lon": 10.7647794, "name": "Mooskopf", "ele": "2532", "stat": "AUT" }, "geometry": { "type": "Point", "coordinates": [ 10.764779400249154, 47.013592800067727, 2531.99997650000023 ] } },
{ "type": "Feature", "properties": { "OBJECTID": 177, "F_id": 292162058.0, "F_lat": 47.0460855, "F_lon": 10.7196525, "name": "Mittagskopf", "ele": "2616", "stat": "AUT" }, "geometry": { "type": "Point", "coordinates": [ 10.719652500062864, 47.046085499846015, 2615.99997650000023 ] } },
{ "type": "Feature", "properties": { "OBJECTID": 178, "F_id": 292162062.0, "F_lat": 47.0398856, "F_lon": 10.7180303, "name": "Roter Schrofen", "ele": "2702", "stat": "AUT" }, "geometry": { "type": "Point", "coordinates": [ 10.718030300258192, 47.039885599740671, 2701.99997650000023 ] } },
{ "type": "Feature", "properties": { "OBJECTID": 179, "F_id": 292238630.0, "F_lat": 46.4024316, "F_lon": 11.712964, "name": "Cima Undici", "ele": "2550", "stat": "ITA" }, "geometry": { "type": "Point", "coordinates": [ 11.712963999888757, 46.402431600438035, 2549.99997650000023 ] } },
{ "type": "Feature", "properties": { "OBJECTID": 180, "F_id": 292834084.0, "F_lat": 47.2125853, "F_lon": 10.3382361, "name": "Guflekopf", "ele": "2563", "stat": "AUT" }, "geometry": { "type": "Point", "coordinates": [ 10.338236099716255, 47.212585299971693, 2562.99997650000023 ] } },
{ "type": "Feature", "properties": { "OBJECTID": 181, "F_id": 292834261.0, "F_lat": 47.2489227, "F_lon": 10.4815965, "name": "Seebleskarspitze", "ele": "2539", "stat": "AUT" }, "geometry": { "type": "Point", "coordinates": [ 10.481596500078467, 47.248922700422327, 2538.99997650000023 ] } },
{ "type": "Feature", "properties": { "OBJECTID": 182, "F_id": 292834300.0, "F_lat": 47.2084473, "F_lon": 10.3372388, "name": "Guflespitze", "ele": "2527", "stat": "AUT" }, "geometry": { "type": "Point", "coordinates": [ 10.337238800130592, 47.208447299803083, 2526.99997650000023 ] } },
{ "type": "Feature", "properties": { "OBJECTID": 183, "F_id": 292834332.0, "F_lat": 47.3280268, "F_lon": 10.4477114, "name": "Sattelkarspitze", "ele": "2552", "stat": "AUT" }, "geometry": { "type": "Point", "coordinates": [ 10.447711399761317, 47.328026799597183, 2551.99997650000023 ] } },
{ "type": "Feature", "properties": { "OBJECTID": 184, "F_id": 293111344.0, "F_lat": 46.8885771, "F_lon": 10.0560878, "name": "Verhupfspitze", "ele": "2957", "stat": "AUT" }, "geometry": { "type": "Point", "coordinates": [ 10.056087800311786, 46.888577099953238, 2956.99997650000023 ] } },
{ "type": "Feature", "properties": { "OBJECTID": 185, "F_id": 294126021.0, "F_lat": 46.6343966, "F_lon": 10.5085227, "name": "Plaschweller", "ele": "2534", "stat": "ITA" }, "geometry": { "type": "Point", "coordinates": [ 10.508522700362391, 46.634396600123068, 2533.99997650000023 ] } },
{ "type": "Feature", "properties": { "OBJECTID": 186, "F_id": 294126023.0, "F_lat": 46.6153316, "F_lon": 10.4919833, "name": "Piz Chavalatsch - Monte Cavallaccio", "ele": "2763", "stat": "CHE" }, "geometry": { "type": "Point", "coordinates": [ 10.49198330008926, 46.615331599573722, 2762.99997650000023 ] } },
{ "type": "Feature", "properties": { "OBJECTID": 187, "F_id": 294473828.0, "F_lat": 46.9288156, "F_lon": 10.0283028, "name": "Hochmaderer", "ele": "2823", "stat": "AUT" }, "geometry": { "type": "Point", "coordinates": [ 10.02830279963456, 46.928815600259782, 2822.99997650000023 ] } },
{ "type": "Feature", "properties": { "OBJECTID": 188, "F_id": 294474954.0, "F_lat": 46.899748, "F_lon": 10.0329655, "name": "Kleinlitzner", "ele": "2783", "stat": "AUT" }, "geometry": { "type": "Point", "coordinates": [ 10.03296550025766, 46.899747999970259, 2782.99997650000023 ] } },
{ "type": "Feature", "properties": { "OBJECTID": 189, "F_id": 294632103.0, "F_lat": 46.9749946, "F_lon": 9.8777771, "name": "Riedkopf", "ele": "2551", "stat": "AUT" }, "geometry": { "type": "Point", "coordinates": [ 9.877777100332935, 46.974994600220668, 2550.99997650000023 ] } },
{ "type": "Feature", "properties": { "OBJECTID": 190, "F_id": 295500021.0, "F_lat": 46.981646, "F_lon": 11.1688116, "name": "Hundsheim", "ele": "2822", "stat": "AUT" }, "geometry": { "type": "Point", "coordinates": [ 11.168811599775552, 46.981645999563284, 2821.99997650000023 ] } },
{ "type": "Feature", "properties": { "OBJECTID": 191, "F_id": 296296509.0, "F_lat": 47.1737789, "F_lon": 10.3955589, "name": "Samspitze", "ele": "2624", "stat": "AUT" }, "geometry": { "type": "Point", "coordinates": [ 10.395558900422941, 47.173778899876368, 2623.99997650000023 ] } },
{ "type": "Feature", "properties": { "OBJECTID": 192, "F_id": 296311438.0, "F_lat": 47.3115458, "F_lon": 10.3556629, "name": "Krottenkopf", "ele": "2656", "stat": "AUT" }, "geometry": { "type": "Point", "coordinates": [ 10.355662899723086, 47.311545800398449, 2655.99997650000023 ] } },
{ "type": "Feature", "properties": { "OBJECTID": 193, "F_id": 298291892.0, "F_lat": 46.1825527, "F_lon": 10.6849162, "name": "Cima Tamalè", "ele": "2582", "stat": "ITA" }, "geometry": { "type": "Point", "coordinates": [ 10.684916200422379, 46.182552700346889, 2581.99997650000023 ] } },
{ "type": "Feature", "properties": { "OBJECTID": 194, "F_id": 298467635.0, "F_lat": 46.5064916, "F_lon": 10.6913201, "name": "Pederköpfl - Dosso di Peder", "ele": "2586", "stat": "ITA" }, "geometry": { "type": "Point", "coordinates": [ 10.691320100042617, 46.50649160040706, 2585.99997650000023 ] } },
{ "type": "Feature", "properties": { "OBJECTID": 195, "F_id": 301002578.0, "F_lat": 46.9129084, "F_lon": 12.7370675, "name": "Kleine Rotspitze", "ele": "2869", "stat": "AUT" }, "geometry": { "type": "Point", "coordinates": [ 12.737067499665443, 46.912908400002721, 2868.99997650000023 ] } },
{ "type": "Feature", "properties": { "OBJECTID": 196, "F_id": 301549910.0, "F_lat": 46.8595389, "F_lon": 11.686882, "name": "Gitsch - Monte Cuzzo", "ele": "2510", "stat": "ITA" }, "geometry": { "type": "Point", "coordinates": [ 11.686882000404069, 46.859538900300038, 2509.99997650000023 ] } },
{ "type": "Feature", "properties": { "OBJECTID": 197, "F_id": 301628267.0, "F_lat": 46.4179198, "F_lon": 8.08259, "name": "Bettmergrat", "ele": "2871", "stat": "CHE" }, "geometry": { "type": "Point", "coordinates": [ 8.08259000032831, 46.41791980025863, 2870.99997650000023 ] } },
{ "type": "Feature", "properties": { "OBJECTID": 198, "F_id": 302194989.0, "F_lat": 47.17474, "F_lon": 10.3582318, "name": "Furklaspitze", "ele": "2587", "stat": "AUT" }, "geometry": { "type": "Point", "coordinates": [ 10.358231799657858, 47.1747399999511, 2586.99997650000023 ] } },
{ "type": "Feature", "properties": { "OBJECTID": 199, "F_id": 302195036.0, "F_lat": 47.2006699, "F_lon": 10.4285634, "name": "Freispitze", "ele": "2884", "stat": "AUT" }, "geometry": { "type": "Point", "coordinates": [ 10.428563399881057, 47.200669899796083, 2883.99997650000023 ] } },
{ "type": "Feature", "properties": { "OBJECTID": 200, "F_id": 302196701.0, "F_lat": 47.1713344, "F_lon": 10.2114127, "name": "Erlispitze", "ele": "2634", "stat": "AUT" }, "geometry": { "type": "Point", "coordinates": [ 10.211412700235996, 47.171334399562966, 2633.99997650000023 ] } },
{ "type": "Feature", "properties": { "OBJECTID": 201, "F_id": 306970230.0, "F_lat": 44.1871412, "F_lon": 7.1936925, "name": "Cime de Tavels", "ele": "2795", "stat": "FRA" }, "geometry": { "type": "Point", "coordinates": [ 7.19369249970913, 44.187141200106339, 2794.99997650000023 ] } },
{ "type": "Feature", "properties": { "OBJECTID": 202, "F_id": 306981456.0, "F_lat": 44.3867542, "F_lon": 7.1029059, "name": "Cima di Test", "ele": "2620", "stat": "ITA" }, "geometry": { "type": "Point", "coordinates": [ 7.102905899587654, 44.386754199846507, 2619.99997650000023 ] } },
{ "type": "Feature", "properties": { "OBJECTID": 203, "F_id": 306981723.0, "F_lat": 44.3915039, "F_lon": 7.088891, "name": "Becco Grande", "ele": "2775", "stat": "ITA" }, "geometry": { "type": "Point", "coordinates": [ 7.088890999719922, 44.391503899985025, 2774.99997650000023 ] } },
{ "type": "Feature", "properties": { "OBJECTID": 204, "F_id": 306982367.0, "F_lat": 44.3971882, "F_lon": 7.0097756, "name": "Bric Bernoir", "ele": "2701", "stat": "ITA" }, "geometry": { "type": "Point", "coordinates": [ 7.009775599664238, 44.397188199875586, 2700.99997650000023 ] } },
{ "type": "Feature", "properties": { "OBJECTID": 205, "F_id": 307153980.0, "F_lat": 45.7420532, "F_lon": 7.9304552, "name": "Cima Morticci", "ele": "2726", "stat": "ITA" }, "geometry": { "type": "Point", "coordinates": [ 7.930455199847643, 45.742053199595546, 2725.99997650000023 ] } },
{ "type": "Feature", "properties": { "OBJECTID": 206, "F_id": 307230906.0, "F_lat": 46.0483329, "F_lon": 9.8307747, "name": "Pizzo Zerna", "ele": "2572", "stat": "ITA" }, "geometry": { "type": "Point", "coordinates": [ 9.830774699992446, 46.048332900443029, 2571.99997650000023 ] } },
{ "type": "Feature", "properties": { "OBJECTID": 207, "F_id": 307261224.0, "F_lat": 46.2261526, "F_lon": 8.1388826, "name": "Punta Valgrande", "ele": "2856", "stat": "ITA" }, "geometry": { "type": "Point", "coordinates": [ 8.138882599752208, 46.226152600262367, 2855.99997650000023 ] } },
{ "type": "Feature", "properties": { "OBJECTID": 208, "F_id": 307268081.0, "F_lat": 46.2551843, "F_lon": 10.785193, "name": "Monte Nambino", "ele": "2678", "stat": "ITA" }, "geometry": { "type": "Point", "coordinates": [ 10.785192999857088, 46.255184299615792, 2677.99997650000023 ] } },
{ "type": "Feature", "properties": { "OBJECTID": 209, "F_id": 307278012.0, "F_lat": 46.3547782, "F_lon": 12.417679, "name": "Cima Laste", "ele": "2556", "stat": "ITA" }, "geometry": { "type": "Point", "coordinates": [ 12.417679000085855, 46.354778199754151, 2555.99997650000023 ] } },
{ "type": "Feature", "properties": { "OBJECTID": 210, "F_id": 307286033.0, "F_lat": 46.4361773, "F_lon": 10.8613224, "name": "Nebelspitz - Cima Tuatti", "ele": "2701", "stat": "ITA" }, "geometry": { "type": "Point", "coordinates": [ 10.861322399808955, 46.436177300442125, 2700.99997650000023 ] } },
{ "type": "Feature", "properties": { "OBJECTID": 211, "F_id": 307292644.0, "F_lat": 46.5141372, "F_lon": 11.715784, "name": "Sasplat - Plattkofel - Sasso Piatto", "ele": "2958", "stat": "ITA" }, "geometry": { "type": "Point", "coordinates": [ 11.715784000431313, 46.514137200271648, 2957.99997650000023 ] } },
{ "type": "Feature", "properties": { "OBJECTID": 212, "F_id": 307293558.0, "F_lat": 46.5177941, "F_lon": 11.8519943, "name": "Col de Stagn", "ele": "2517", "stat": "ITA" }, "geometry": { "type": "Point", "coordinates": [ 11.851994300396711, 46.517794100017738, 2516.99997650000023 ] } },
{ "type": "Feature", "properties": { "OBJECTID": 213, "F_id": 307294212.0, "F_lat": 46.5515116, "F_lon": 12.0141774, "name": "Piza de Medo - Punta di mezzo", "ele": "2989", "stat": "ITA" }, "geometry": { "type": "Point", "coordinates": [ 12.01417739966729, 46.551511599980415, 2988.99997650000023 ] } },
{ "type": "Feature", "properties": { "OBJECTID": 214, "F_id": 307297638.0, "F_lat": 46.6133005, "F_lon": 11.781847, "name": "Wasserkofel - Sas dal'Ega - Furchetta Grande", "ele": "2924", "stat": "ITA" }, "geometry": { "type": "Point", "coordinates": [ 11.781847000039079, 46.61330049961839, 2923.99997650000023 ] } },
{ "type": "Feature", "properties": { "OBJECTID": 215, "F_id": 307297664.0, "F_lat": 46.6037551, "F_lon": 11.7557292, "name": "Geislerspitze - Gran Odla - Grande Odla", "ele": "2832", "stat": "ITA" }, "geometry": { "type": "Point", "coordinates": [ 11.755729200342387, 46.603755099917976, 2831.99997650000023 ] } },
{ "type": "Feature", "properties": { "OBJECTID": 216, "F_id": 307297671.0, "F_lat": 46.6144819, "F_lon": 11.951485, "name": "Le Ciaval", "ele": "2907", "stat": "ITA" }, "geometry": { "type": "Point", "coordinates": [ 11.951484999732997, 46.614481900319504, 2906.99997650000023 ] } },
{ "type": "Feature", "properties": { "OBJECTID": 217, "F_id": 307297724.0, "F_lat": 46.5575563, "F_lon": 12.0026699, "name": "Piza dl Lech", "ele": "2654", "stat": "ITA" }, "geometry": { "type": "Point", "coordinates": [ 12.002669899596242, 46.557556299583609, 2653.99997650000023 ] } },
{ "type": "Feature", "properties": { "OBJECTID": 218, "F_id": 307298892.0, "F_lat": 46.6304112, "F_lon": 12.3151777, "name": "Monte Paterno - Paternkofel", "ele": "2744", "stat": "ITA" }, "geometry": { "type": "Point", "coordinates": [ 12.315177699691162, 46.630411199617242, 2743.99997650000023 ] } },
{ "type": "Feature", "properties": { "OBJECTID": 219, "F_id": 307300802.0, "F_lat": 46.6569759, "F_lon": 12.6906419, "name": "Steinkarspitz / Monte Antola", "ele": "2524", "stat": "ITA" }, "geometry": { "type": "Point", "coordinates": [ 12.690641900203559, 46.656975900317605, 2523.99997650000023 ] } },
{ "type": "Feature", "properties": { "OBJECTID": 220, "F_id": 307302677.0, "F_lat": 46.6303454, "F_lon": 11.9810725, "name": "Piza dales Nü", "ele": "2968", "stat": "ITA" }, "geometry": { "type": "Point", "coordinates": [ 11.981072499896015, 46.630345399820385, 2967.99997650000023 ] } },
{ "type": "Feature", "properties": { "OBJECTID": 221, "F_id": 307303031.0, "F_lat": 46.7017954, "F_lon": 11.2755741, "name": "Vorderer Verdinser Plattenspitz - Laste di Verdins (di fuori)", "ele": "2680", "stat": "ITA" }, "geometry": { "type": "Point", "coordinates": [ 11.275574100264578, 46.701795399638058, 2679.99997650000023 ] } },
{ "type": "Feature", "properties": { "OBJECTID": 222, "F_id": 307303496.0, "F_lat": 46.6766491, "F_lon": 12.0563558, "name": "Le Seneser - Senneser Karspitze - Punta Quaira di Sennes", "ele": "2659", "stat": "ITA" }, "geometry": { "type": "Point", "coordinates": [ 12.056355799680432, 46.676649099776171, 2658.99997650000023 ] } },
{ "type": "Feature", "properties": { "OBJECTID": 223, "F_id": 307303616.0, "F_lat": 46.7008257, "F_lon": 12.4138337, "name": "Hornischegg - Monte Arnese", "ele": "2550", "stat": "ITA" }, "geometry": { "type": "Point", "coordinates": [ 12.413833699565657, 46.7008257002459, 2549.99997650000023 ] } },
{ "type": "Feature", "properties": { "OBJECTID": 224, "F_id": 307303631.0, "F_lat": 46.6990907, "F_lon": 12.4270422, "name": "Hollbrucker Spitze - Cima di Pontegrotta", "ele": "2580", "stat": "ITA" }, "geometry": { "type": "Point", "coordinates": [ 12.427042199837729, 46.699090700275633, 2579.99997650000023 ] } },
{ "type": "Feature", "properties": { "OBJECTID": 225, "F_id": 307303649.0, "F_lat": 46.6901926, "F_lon": 12.4461393, "name": "Demutspitze - La Muta", "ele": "2592", "stat": "ITA" }, "geometry": { "type": "Point", "coordinates": [ 12.446139299888841, 46.690192600208377, 2591.99997650000023 ] } },
{ "type": "Feature", "properties": { "OBJECTID": 226, "F_id": 307303758.0, "F_lat": 46.6571141, "F_lon": 12.3165155, "name": "Schusterplatte - Lastron dei Scarperi", "ele": "2956", "stat": "ITA" }, "geometry": { "type": "Point", "coordinates": [ 12.316515499690581, 46.657114100035756, 2955.99997650000023 ] } },
{ "type": "Feature", "properties": { "OBJECTID": 227, "F_id": 307303972.0, "F_lat": 46.7062821, "F_lon": 11.4934185, "name": "Samspitze", "ele": "2563", "stat": "ITA" }, "geometry": { "type": "Point", "coordinates": [ 11.493418500063797, 46.706282100238809, 2562.99997650000023 ] } },
{ "type": "Feature", "properties": { "OBJECTID": 228, "F_id": 307303996.0, "F_lat": 46.7239304, "F_lon": 11.5113608, "name": "Geißhorn - Cima di Capra", "ele": "2519", "stat": "ITA" }, "geometry": { "type": "Point", "coordinates": [ 11.511360799561317, 46.723930399668291, 2518.99997650000023 ] } },
{ "type": "Feature", "properties": { "OBJECTID": 229, "F_id": 307305240.0, "F_lat": 46.772587, "F_lon": 11.1474116, "name": "Kolbenspitze - La Clava", "ele": "2868", "stat": "ITA" }, "geometry": { "type": "Point", "coordinates": [ 11.147411600365103, 46.772587000389819, 2867.99997650000023 ] } },
{ "type": "Feature", "properties": { "OBJECTID": 230, "F_id": 307305653.0, "F_lat": 46.7806788, "F_lon": 11.4967367, "name": "Tagewaldhorn - Corno di Tramin", "ele": "2706", "stat": "ITA" }, "geometry": { "type": "Point", "coordinates": [ 11.496736699838891, 46.780678799786813, 2705.99997650000023 ] } },
{ "type": "Feature", "properties": { "OBJECTID": 231, "F_id": 307305674.0, "F_lat": 46.7459302, "F_lon": 11.5079709, "name": "Liffelspitz - Monte Livolo", "ele": "2590", "stat": "ITA" }, "geometry": { "type": "Point", "coordinates": [ 11.50797090043676, 46.745930200118721, 2589.99997650000023 ] } },
{ "type": "Feature", "properties": { "OBJECTID": 232, "F_id": 307305800.0, "F_lat": 46.7802421, "F_lon": 11.5294286, "name": "Kreuzjoch - Monte della Croce", "ele": "2560", "stat": "ITA" }, "geometry": { "type": "Point", "coordinates": [ 11.529428600349661, 46.780242099793099, 2559.99997650000023 ] } },
{ "type": "Feature", "properties": { "OBJECTID": 233, "F_id": 307305822.0, "F_lat": 46.7712866, "F_lon": 11.516549, "name": "Marchspitze - Cima Mercato", "ele": "2544", "stat": "ITA" }, "geometry": { "type": "Point", "coordinates": [ 11.516549000136308, 46.77128659959692, 2543.99997650000023 ] } },
{ "type": "Feature", "properties": { "OBJECTID": 234, "F_id": 307306090.0, "F_lat": 46.791449, "F_lon": 12.2807583, "name": "Gaishörndl", "ele": "2615", "stat": "ITA" }, "geometry": { "type": "Point", "coordinates": [ 12.280758299555941, 46.791448999671672, 2614.99997650000023 ] } },
{ "type": "Feature", "properties": { "OBJECTID": 235, "F_id": 307307170.0, "F_lat": 46.8088189, "F_lon": 11.4828741, "name": "Tatschspitze - Montaccio di Pennes", "ele": "2526", "stat": "ITA" }, "geometry": { "type": "Point", "coordinates": [ 11.48287410015962, 46.8088188995726, 2525.99997650000023 ] } },
{ "type": "Feature", "properties": { "OBJECTID": 236, "F_id": 307308157.0, "F_lat": 46.8737526, "F_lon": 12.2181411, "name": "Hinterbergkofel - Monte di Dentro", "ele": "2727", "stat": "ITA" }, "geometry": { "type": "Point", "coordinates": [ 12.218141100031801, 46.873752599802685, 2726.99997650000023 ] } },
{ "type": "Feature", "properties": { "OBJECTID": 237, "F_id": 307308431.0, "F_lat": 46.8702925, "F_lon": 11.7556078, "name": "Eidechsspitze - Cima di Terento", "ele": "2738", "stat": "ITA" }, "geometry": { "type": "Point", "coordinates": [ 11.755607799960046, 46.870292499599202, 2737.99997650000023 ] } },
{ "type": "Feature", "properties": { "OBJECTID": 238, "F_id": 307308450.0, "F_lat": 46.8802132, "F_lon": 11.7699427, "name": "Kleiner Grubbachspitz - Rocca dei Camosci", "ele": "2756", "stat": "ITA" }, "geometry": { "type": "Point", "coordinates": [ 11.769942700195486, 46.880213199879336, 2755.99997650000023 ] } },
{ "type": "Feature", "properties": { "OBJECTID": 239, "F_id": 307308457.0, "F_lat": 46.8825081, "F_lon": 11.7697254, "name": "Hochgrubbachspitz - Monte Gruppo", "ele": "2809", "stat": "ITA" }, "geometry": { "type": "Point", "coordinates": [ 11.769725399707454, 46.882508099769041, 2808.99997650000023 ] } },
{ "type": "Feature", "properties": { "OBJECTID": 240, "F_id": 307308933.0, "F_lat": 46.906951, "F_lon": 11.5835828, "name": "Ebengrubenspitz - Cima di Pianbello", "ele": "2989", "stat": "ITA" }, "geometry": { "type": "Point", "coordinates": [ 11.583582799906367, 46.906951000288473, 2988.99997650000023 ] } },
{ "type": "Feature", "properties": { "OBJECTID": 241, "F_id": 307308940.0, "F_lat": 46.8838945, "F_lon": 11.5884051, "name": "Blauer Stoan", "ele": "2584", "stat": "ITA" }, "geometry": { "type": "Point", "coordinates": [ 11.588405099615727, 46.883894500031204, 2583.99997650000023 ] } },
{ "type": "Feature", "properties": { "OBJECTID": 242, "F_id": 307308947.0, "F_lat": 46.878022, "F_lon": 11.5941355, "name": "Schwarzenstoan", "ele": "2696", "stat": "ITA" }, "geometry": { "type": "Point", "coordinates": [ 11.594135499653646, 46.878021999915404, 2695.99997650000023 ] } },
{ "type": "Feature", "properties": { "OBJECTID": 243, "F_id": 307309317.0, "F_lat": 46.9272412, "F_lon": 11.6136178, "name": "Sandturm - Cima della Rena", "ele": "2755", "stat": "ITA" }, "geometry": { "type": "Point", "coordinates": [ 11.61361780002153, 46.927241200321191, 2754.99997650000023 ] } },
{ "type": "Feature", "properties": { "OBJECTID": 244, "F_id": 307309324.0, "F_lat": 46.9258676, "F_lon": 11.6177633, "name": "Sandspitz", "ele": "2719", "stat": "ITA" }, "geometry": { "type": "Point", "coordinates": [ 11.617763299636636, 46.925867600109711, 2718.99997650000023 ] } },
{ "type": "Feature", "properties": { "OBJECTID": 245, "F_id": 307309331.0, "F_lat": 46.9260047, "F_lon": 11.6230038, "name": "Rübespitz - Punta Riva", "ele": "2787", "stat": "ITA" }, "geometry": { "type": "Point", "coordinates": [ 11.623003800285176, 46.926004699956991, 2786.99997650000023 ] } },
{ "type": "Feature", "properties": { "OBJECTID": 246, "F_id": 307309389.0, "F_lat": 46.8902539, "F_lon": 11.6612458, "name": "Bretterspitz - Cima di San Paolo", "ele": "2695", "stat": "ITA" }, "geometry": { "type": "Point", "coordinates": [ 11.661245800253539, 46.890253900297296, 2694.99997650000023 ] } },
{ "type": "Feature", "properties": { "OBJECTID": 247, "F_id": 307309396.0, "F_lat": 46.8708806, "F_lon": 11.6768288, "name": "Fallmetzer - Monte Val di Mezzo", "ele": "2568", "stat": "ITA" }, "geometry": { "type": "Point", "coordinates": [ 11.676828800308954, 46.870880599560053, 2567.99997650000023 ] } },
{ "type": "Feature", "properties": { "OBJECTID": 248, "F_id": 307309948.0, "F_lat": 46.9083197, "F_lon": 11.7387718, "name": "Blauwand", "ele": "2584", "stat": "ITA" }, "geometry": { "type": "Point", "coordinates": [ 11.738771799678887, 46.908319700094125, 2583.99997650000023 ] } },
{ "type": "Feature", "properties": { "OBJECTID": 249, "F_id": 307310170.0, "F_lat": 46.9885081, "F_lon": 12.0770572, "name": "Schwarzerspitz", "ele": "2862", "stat": "ITA" }, "geometry": { "type": "Point", "coordinates": [ 12.077057200329591, 46.988508100168758, 2861.99997650000023 ] } },
{ "type": "Feature", "properties": { "OBJECTID": 250, "F_id": 307310194.0, "F_lat": 46.9523665, "F_lon": 11.8132157, "name": "Schaflahnernock - Cima delle Pecore", "ele": "2703", "stat": "ITA" }, "geometry": { "type": "Point", "coordinates": [ 11.813215700144497, 46.952366500113953, 2702.99997650000023 ] } },
{ "type": "Feature", "properties": { "OBJECTID": 251, "F_id": 307310206.0, "F_lat": 46.9471101, "F_lon": 11.8115749, "name": "Weiße Wand - Croda Bianca", "ele": "2666", "stat": "ITA" }, "geometry": { "type": "Point", "coordinates": [ 11.811574899661935, 46.947110100350926, 2665.99997650000023 ] } },
{ "type": "Feature", "properties": { "OBJECTID": 252, "F_id": 307310376.0, "F_lat": 47.0079515, "F_lon": 12.1088444, "name": "Kleiner Alprechtspitz", "ele": "2855", "stat": "ITA" }, "geometry": { "type": "Point", "coordinates": [ 12.108844399949135, 47.007951500361514, 2854.99997650000023 ] } },
{ "type": "Feature", "properties": { "OBJECTID": 253, "F_id": 307310796.0, "F_lat": 47.0585216, "F_lon": 12.0595056, "name": "Wagnerschneid Spitz - Cima Triangolo", "ele": "2893", "stat": "ITA" }, "geometry": { "type": "Point", "coordinates": [ 12.059505599603767, 47.05852160029167, 2892.99997650000023 ] } },
{ "type": "Feature", "properties": { "OBJECTID": 254, "F_id": 307562003.0, "F_lat": 47.558423, "F_lon": 12.9237899, "name": "Hocheck", "ele": "2651", "stat": "DEU" }, "geometry": { "type": "Point", "coordinates": [ 12.923789899584222, 47.558423000321284, 2650.99997650000023 ] } },
{ "type": "Feature", "properties": { "OBJECTID": 255, "F_id": 309080619.0, "F_lat": 47.3438408, "F_lon": 10.4853692, "name": "Wasserfallkarspitze", "ele": "2557", "stat": "AUT" }, "geometry": { "type": "Point", "coordinates": [ 10.485369200128559, 47.343840800412636, 2556.99997650000023 ] } },
{ "type": "Feature", "properties": { "OBJECTID": 256, "F_id": 309081479.0, "F_lat": 47.302725, "F_lon": 10.3547349, "name": "Ramstallspitze", "ele": "2531", "stat": "AUT" }, "geometry": { "type": "Point", "coordinates": [ 10.354734900095593, 47.302724999758993, 2530.99997650000023 ] } },
{ "type": "Feature", "properties": { "OBJECTID": 257, "F_id": 309276896.0, "F_lat": 46.6019794, "F_lon": 8.6115218, "name": "Gemsstock", "ele": "2961", "stat": "CHE" }, "geometry": { "type": "Point", "coordinates": [ 8.611521800190985, 46.601979400229197, 2960.99997650000023 ] } },
{ "type": "Feature", "properties": { "OBJECTID": 258, "F_id": 309278135.0, "F_lat": 46.7895889, "F_lon": 9.6387758, "name": "Weisshorn", "ele": "2653", "stat": "CHE" }, "geometry": { "type": "Point", "coordinates": [ 9.638775799563575, 46.789588900407466, 2652.99997650000023 ] } },
{ "type": "Feature", "properties": { "OBJECTID": 259, "F_id": 309389245.0, "F_lat": 46.7060986, "F_lon": 11.5006501, "name": "Ritzlar", "ele": "2528", "stat": "ITA" }, "geometry": { "type": "Point", "coordinates": [ 11.50065009972235, 46.706098599870529, 2527.99997650000023 ] } },
{ "type": "Feature", "properties": { "OBJECTID": 260, "F_id": 310256077.0, "F_lat": 46.5765777, "F_lon": 10.9568874, "name": "Muttegrub", "ele": "2737", "stat": "ITA" }, "geometry": { "type": "Point", "coordinates": [ 10.956887400133439, 46.576577700100813, 2736.99997650000023 ] } },
{ "type": "Feature", "properties": { "OBJECTID": 261, "F_id": 310256078.0, "F_lat": 46.5688002, "F_lon": 10.9816986, "name": "Peilstein - Il Sasso", "ele": "2542", "stat": "ITA" }, "geometry": { "type": "Point", "coordinates": [ 10.981698600010418, 46.568800200269095, 2541.99997650000023 ] } },
{ "type": "Feature", "properties": { "OBJECTID": 262, "F_id": 310256079.0, "F_lat": 46.5797025, "F_lon": 10.9671826, "name": "Rontscher - Monte dei Romici", "ele": "2711", "stat": "ITA" }, "geometry": { "type": "Point", "coordinates": [ 10.967182599697253, 46.579702499770576, 2710.99997650000023 ] } },
{ "type": "Feature", "properties": { "OBJECTID": 263, "F_id": 310256080.0, "F_lat": 46.5858702, "F_lon": 10.9886147, "name": "Schwarze", "ele": "2616", "stat": "ITA" }, "geometry": { "type": "Point", "coordinates": [ 10.988614700408164, 46.58587019965006, 2615.99997650000023 ] } },
{ "type": "Feature", "properties": { "OBJECTID": 264, "F_id": 310438852.0, "F_lat": 46.671166, "F_lon": 10.8923178, "name": "Trumsspitze - Punta di Trumes", "ele": "2914", "stat": "ITA" }, "geometry": { "type": "Point", "coordinates": [ 10.892317800326282, 46.67116599981108, 2913.99997650000023 ] } },
{ "type": "Feature", "properties": { "OBJECTID": 265, "F_id": 310438853.0, "F_lat": 46.6665677, "F_lon": 10.8874738, "name": "Grubenspitze - Punta delle Fosse", "ele": "2899", "stat": "ITA" }, "geometry": { "type": "Point", "coordinates": [ 10.887473799975965, 46.6665676996397, 2898.99997650000023 ] } },
{ "type": "Feature", "properties": { "OBJECTID": 266, "F_id": 310461410.0, "F_lat": 46.7346823, "F_lon": 10.8802322, "name": "Schröfwand", "ele": "2815", "stat": "ITA" }, "geometry": { "type": "Point", "coordinates": [ 10.880232199856209, 46.734682300148108, 2814.99997650000023 ] } },
{ "type": "Feature", "properties": { "OBJECTID": 267, "F_id": 312770761.0, "F_lat": 47.0126709, "F_lon": 9.8396931, "name": "Sulzfluh", "ele": "2818", "stat": "CHE" }, "geometry": { "type": "Point", "coordinates": [ 9.839693099556939, 47.01267089964233, 2817.99997650000023 ] } },
{ "type": "Feature", "properties": { "OBJECTID": 268, "F_id": 313719257.0, "F_lat": 46.5118256, "F_lon": 11.5748922, "name": "Petz - Monte Pez", "ele": "2568", "stat": "ITA" }, "geometry": { "type": "Point", "coordinates": [ 11.574892200414752, 46.51182559997153, 2567.99997650000023 ] } },
{ "type": "Feature", "properties": { "OBJECTID": 269, "F_id": 313974459.0, "F_lat": 46.6588572, "F_lon": 11.8205348, "name": "Peitlerkofel - Sass de Pütia - Sass de Putia", "ele": "2875", "stat": "ITA" }, "geometry": { "type": "Point", "coordinates": [ 11.820534800240864, 46.658857200199691, 2874.99997650000023 ] } },
{ "type": "Feature", "properties": { "OBJECTID": 270, "F_id": 315130960.0, "F_lat": 46.8618771, "F_lon": 10.1115352, "name": "Grüne Kuppe", "ele": "2579", "stat": "AUT" }, "geometry": { "type": "Point", "coordinates": [ 10.111535199789671, 46.861877099848357, 2578.99997650000023 ] } },
{ "type": "Feature", "properties": { "OBJECTID": 271, "F_id": 315845680.0, "F_lat": 45.9598796, "F_lon": 7.1735389, "name": "Crêta Vella", "ele": "2519", "stat": "CHE" }, "geometry": { "type": "Point", "coordinates": [ 7.17353890039999, 45.959879600363308, 2518.99997650000023 ] } },
{ "type": "Feature", "properties": { "OBJECTID": 272, "F_id": 315917192.0, "F_lat": 45.2019645, "F_lon": 5.9813428, "name": "Grand Replomb", "ele": "2506", "stat": "FRA" }, "geometry": { "type": "Point", "coordinates": [ 5.981342800429957, 45.201964500361441, 2505.99997650000023 ] } },
{ "type": "Feature", "properties": { "OBJECTID": 273, "F_id": 316301662.0, "F_lat": 46.302144, "F_lon": 7.279634, "name": "La Fava", "ele": "2612", "stat": "CHE" }, "geometry": { "type": "Point", "coordinates": [ 7.279633999609416, 46.302144000145518, 2611.99997650000023 ] } },
{ "type": "Feature", "properties": { "OBJECTID": 274, "F_id": 318114601.0, "F_lat": 45.1754603, "F_lon": 5.956577, "name": "Petite Lance de Domène", "ele": "2596", "stat": "FRA" }, "geometry": { "type": "Point", "coordinates": [ 5.956577000128505, 45.17546029975307, 2595.99997650000023 ] } },
{ "type": "Feature", "properties": { "OBJECTID": 275, "F_id": 320883572.0, "F_lat": 46.7107972, "F_lon": 10.6018287, "name": "Hochjoch - Giogo Alto", "ele": "2570", "stat": "ITA" }, "geometry": { "type": "Point", "coordinates": [ 10.601828699934629, 46.710797199631088, 2569.99997650000023 ] } },
{ "type": "Feature", "properties": { "OBJECTID": 276, "F_id": 321139367.0, "F_lat": 47.2498197, "F_lon": 10.626104, "name": "Brunnkarspitze", "ele": "2609", "stat": "AUT" }, "geometry": { "type": "Point", "coordinates": [ 10.626104000099588, 47.249819700418868, 2608.99997650000023 ] } },
{ "type": "Feature", "properties": { "OBJECTID": 277, "F_id": 321139513.0, "F_lat": 47.256005, "F_lon": 10.56806, "name": "Bockkarspitze", "ele": "2602", "stat": "AUT" }, "geometry": { "type": "Point", "coordinates": [ 10.568059999769218, 47.256005000030768, 2601.99997650000023 ] } },
{ "type": "Feature", "properties": { "OBJECTID": 278, "F_id": 321139520.0, "F_lat": 47.260657, "F_lon": 10.566082, "name": "Nördliche Bockkarspitze", "ele": "2501", "stat": "AUT" }, "geometry": { "type": "Point", "coordinates": [ 10.566082000284155, 47.260656999620892, 2500.99997650000023 ] } },
{ "type": "Feature", "properties": { "OBJECTID": 279, "F_id": 321139533.0, "F_lat": 47.26754, "F_lon": 10.569912, "name": "Potschallkopf", "ele": "2587", "stat": "AUT" }, "geometry": { "type": "Point", "coordinates": [ 10.56991199973902, 47.267539999571397, 2586.99997650000023 ] } },
{ "type": "Feature", "properties": { "OBJECTID": 280, "F_id": 321152315.0, "F_lat": 47.1742498, "F_lon": 10.8582572, "name": "Mittlerer Karkopf", "ele": "2606", "stat": "AUT" }, "geometry": { "type": "Point", "coordinates": [ 10.858257200009803, 47.174249800188193, 2605.99997650000023 ] } },
{ "type": "Feature", "properties": { "OBJECTID": 281, "F_id": 321152333.0, "F_lat": 47.1709232, "F_lon": 10.8463763, "name": "Hoher Karkopf", "ele": "2686", "stat": "AUT" }, "geometry": { "type": "Point", "coordinates": [ 10.84637629962657, 47.170923199845845, 2685.99997650000023 ] } },
{ "type": "Feature", "properties": { "OBJECTID": 282, "F_id": 321152372.0, "F_lat": 47.1816297, "F_lon": 10.8473682, "name": "Blosse", "ele": "2536", "stat": "AUT" }, "geometry": { "type": "Point", "coordinates": [ 10.847368199682705, 47.181629699850816, 2535.99997650000023 ] } },
{ "type": "Feature", "properties": { "OBJECTID": 283, "F_id": 321167470.0, "F_lat": 47.141285, "F_lon": 10.8096613, "name": "Schwendtkopf", "ele": "2605", "stat": "AUT" }, "geometry": { "type": "Point", "coordinates": [ 10.809661299929076, 47.14128500040249, 2604.99997650000023 ] } },
{ "type": "Feature", "properties": { "OBJECTID": 284, "F_id": 321173259.0, "F_lat": 46.8898876, "F_lon": 11.1016994, "name": "Westl. Bankerjoch Spitz", "ele": "2828", "stat": "AUT" }, "geometry": { "type": "Point", "coordinates": [ 11.101699399807501, 46.889887600132681, 2827.99997650000023 ] } },
{ "type": "Feature", "properties": { "OBJECTID": 285, "F_id": 321174962.0, "F_lat": 46.945547, "F_lon": 10.925968, "name": "Dreizeiger", "ele": "2980", "stat": "AUT" }, "geometry": { "type": "Point", "coordinates": [ 10.925968000422927, 46.945547000393788, 2979.99997650000023 ] } },
{ "type": "Feature", "properties": { "OBJECTID": 286, "F_id": 321174966.0, "F_lat": 46.946723, "F_lon": 10.928302, "name": "Zweizeiger", "ele": "2975", "stat": "AUT" }, "geometry": { "type": "Point", "coordinates": [ 10.928302000137251, 46.946722999766678, 2974.99997650000023 ] } },
{ "type": "Feature", "properties": { "OBJECTID": 287, "F_id": 321174978.0, "F_lat": 46.953873, "F_lon": 10.933452, "name": "Roter Turm", "ele": "2966", "stat": "AUT" }, "geometry": { "type": "Point", "coordinates": [ 10.933452000209684, 46.953873000338774, 2965.99997650000023 ] } },
{ "type": "Feature", "properties": { "OBJECTID": 288, "F_id": 321175005.0, "F_lat": 46.9673274, "F_lon": 10.9490929, "name": "Rotkogel", "ele": "2947", "stat": "AUT" }, "geometry": { "type": "Point", "coordinates": [ 10.949092900417043, 46.967327400439217, 2946.99997650000023 ] } },
{ "type": "Feature", "properties": { "OBJECTID": 289, "F_id": 321175051.0, "F_lat": 46.9709913, "F_lon": 10.9509664, "name": "Roßkirpl", "ele": "2942", "stat": "AUT" }, "geometry": { "type": "Point", "coordinates": [ 10.950966399579727, 46.970991299608841, 2941.99997650000023 ] } },
{ "type": "Feature", "properties": { "OBJECTID": 290, "F_id": 321175101.0, "F_lat": 46.9831724, "F_lon": 10.9629781, "name": "Breitlehner", "ele": "2794", "stat": "AUT" }, "geometry": { "type": "Point", "coordinates": [ 10.962978100059331, 46.983172399986302, 2793.99997650000023 ] } },
{ "type": "Feature", "properties": { "OBJECTID": 291, "F_id": 321175111.0, "F_lat": 46.987645, "F_lon": 10.968442, "name": "Lange Wand", "ele": "2876", "stat": "AUT" }, "geometry": { "type": "Point", "coordinates": [ 10.968442000398056, 46.987645000116743, 2875.99997650000023 ] } },
{ "type": "Feature", "properties": { "OBJECTID": 292, "F_id": 321175117.0, "F_lat": 46.9907568, "F_lon": 10.9711137, "name": "Grieskogel", "ele": "2909", "stat": "AUT" }, "geometry": { "type": "Point", "coordinates": [ 10.971113700037279, 46.990756800086331, 2908.99997650000023 ] } },
{ "type": "Feature", "properties": { "OBJECTID": 293, "F_id": 321175788.0, "F_lat": 47.0301472, "F_lon": 10.8979167, "name": "Jochkogel", "ele": "2972", "stat": "AUT" }, "geometry": { "type": "Point", "coordinates": [ 10.897916699695998, 47.030147200133229, 2971.99997650000023 ] } },
{ "type": "Feature", "properties": { "OBJECTID": 294, "F_id": 321175855.0, "F_lat": 47.0558888, "F_lon": 10.8913922, "name": "Vorderer Feuerkogel", "ele": "2955", "stat": "AUT" }, "geometry": { "type": "Point", "coordinates": [ 10.891392200090024, 47.055888799928255, 2954.99997650000023 ] } },
{ "type": "Feature", "properties": { "OBJECTID": 295, "F_id": 321175870.0, "F_lat": 47.0626184, "F_lon": 10.888609, "name": "Dristenkogel", "ele": "2996", "stat": "AUT" }, "geometry": { "type": "Point", "coordinates": [ 10.88860899980557, 47.062618399819371, 2995.99997650000023 ] } },
{ "type": "Feature", "properties": { "OBJECTID": 296, "F_id": 321175885.0, "F_lat": 47.066489, "F_lon": 10.8857435, "name": "Grießkogel", "ele": "2980", "stat": "AUT" }, "geometry": { "type": "Point", "coordinates": [ 10.885743499862656, 47.066489000067349, 2979.99997650000023 ] } },
{ "type": "Feature", "properties": { "OBJECTID": 297, "F_id": 321175935.0, "F_lat": 47.0866807, "F_lon": 10.9007621, "name": "Hohe Seite", "ele": "2852", "stat": "AUT" }, "geometry": { "type": "Point", "coordinates": [ 10.900762099791109, 47.08668070005433, 2851.99997650000023 ] } },
{ "type": "Feature", "properties": { "OBJECTID": 298, "F_id": 321177500.0, "F_lat": 47.1139701, "F_lon": 10.7311686, "name": "Kreuzjöchel", "ele": "2589", "stat": "AUT" }, "geometry": { "type": "Point", "coordinates": [ 10.731168600350657, 47.113970099640426, 2588.99997650000023 ] } },
{ "type": "Feature", "properties": { "OBJECTID": 299, "F_id": 321177909.0, "F_lat": 47.162385, "F_lon": 10.836638, "name": "Weiter Karkopf", "ele": "2777", "stat": "AUT" }, "geometry": { "type": "Point", "coordinates": [ 10.836637999843845, 47.162385000367522, 2776.99997650000023 ] } },
{ "type": "Feature", "properties": { "OBJECTID": 300, "F_id": 321178237.0, "F_lat": 47.1352914, "F_lon": 10.8264938, "name": "Riegelkopf", "ele": "2945", "stat": "AUT" }, "geometry": { "type": "Point", "coordinates": [ 10.826493800048866, 47.135291400277936, 2944.99997650000023 ] } },
{ "type": "Feature", "properties": { "OBJECTID": 301, "F_id": 321178266.0, "F_lat": 47.1480317, "F_lon": 10.8326682, "name": "Brechkogel", "ele": "2918", "stat": "AUT" }, "geometry": { "type": "Point", "coordinates": [ 10.83266819987756, 47.148031700003003, 2917.99997650000023 ] } },
{ "type": "Feature", "properties": { "OBJECTID": 302, "F_id": 321178278.0, "F_lat": 47.1522562, "F_lon": 10.8299411, "name": "Murmentenkarspitze", "ele": "2784", "stat": "AUT" }, "geometry": { "type": "Point", "coordinates": [ 10.829941100201665, 47.152256199663952, 2783.99997650000023 ] } },
{ "type": "Feature", "properties": { "OBJECTID": 303, "F_id": 321178779.0, "F_lat": 47.0546, "F_lon": 10.800658, "name": "Kleiner Dristkogel", "ele": "2934", "stat": "AUT" }, "geometry": { "type": "Point", "coordinates": [ 10.800657999866871, 47.054600000389769, 2933.99997650000023 ] } },
{ "type": "Feature", "properties": { "OBJECTID": 304, "F_id": 321178783.0, "F_lat": 47.058873, "F_lon": 10.800662, "name": "Wallfahrtsköpfl", "ele": "2850", "stat": "AUT" }, "geometry": { "type": "Point", "coordinates": [ 10.800662000051318, 47.058872999589312, 2849.99997650000023 ] } },
{ "type": "Feature", "properties": { "OBJECTID": 305, "F_id": 321178799.0, "F_lat": 47.0651559, "F_lon": 10.7921137, "name": "Peischlkopf", "ele": "2913", "stat": "AUT" }, "geometry": { "type": "Point", "coordinates": [ 10.792113700287075, 47.065155899924889, 2912.99997650000023 ] } },
{ "type": "Feature", "properties": { "OBJECTID": 306, "F_id": 321178819.0, "F_lat": 47.074547, "F_lon": 10.789865, "name": "Steinmanndl", "ele": "2898", "stat": "AUT" }, "geometry": { "type": "Point", "coordinates": [ 10.789865000369502, 47.074547000243911, 2897.99997650000023 ] } },
{ "type": "Feature", "properties": { "OBJECTID": 307, "F_id": 321178827.0, "F_lat": 47.08041, "F_lon": 10.78616, "name": "Vorderer Stupfarri", "ele": "2870", "stat": "AUT" }, "geometry": { "type": "Point", "coordinates": [ 10.786160000383745, 47.080409999921585, 2869.99997650000023 ] } },
{ "type": "Feature", "properties": { "OBJECTID": 308, "F_id": 321620390.0, "F_lat": 46.9539885, "F_lon": 10.3278196, "name": "Salaaser Kopf", "ele": "2744", "stat": "CHE" }, "geometry": { "type": "Point", "coordinates": [ 10.327819599594875, 46.953988500269134, 2743.99997650000023 ] } },
{ "type": "Feature", "properties": { "OBJECTID": 309, "F_id": 321794862.0, "F_lat": 44.3479834, "F_lon": 6.5650116, "name": "Sommet Lac", "ele": "2503", "stat": "FRA" }, "geometry": { "type": "Point", "coordinates": [ 6.565011600105322, 44.347983400313751, 2502.99997650000023 ] } },
{ "type": "Feature", "properties": { "OBJECTID": 310, "F_id": 323258238.0, "F_lat": 47.3958052, "F_lon": 10.9903473, "name": "Mittlere Plattspitze", "ele": "2680", "stat": "AUT" }, "geometry": { "type": "Point", "coordinates": [ 10.990347300087876, 47.395805200249868, 2679.99997650000023 ] } },
{ "type": "Feature", "properties": { "OBJECTID": 311, "F_id": 323842894.0, "F_lat": 47.3963394, "F_lon": 11.0397076, "name": "Kleiner Wanner", "ele": "2548", "stat": "AUT" }, "geometry": { "type": "Point", "coordinates": [ 11.03970759962607, 47.396339400243164, 2547.99997650000023 ] } },
{ "type": "Feature", "properties": { "OBJECTID": 312, "F_id": 323896644.0, "F_lat": 47.4175695, "F_lon": 10.9723451, "name": "Zugspitzeck", "ele": "2815", "stat": "DEU" }, "geometry": { "type": "Point", "coordinates": [ 10.972345100346161, 47.417569499732679, 2814.99997650000023 ] } },
{ "type": "Feature", "properties": { "OBJECTID": 313, "F_id": 324040107.0, "F_lat": 45.3824698, "F_lon": 6.6093404, "name": "Saulire", "ele": "2738", "stat": "FRA" }, "geometry": { "type": "Point", "coordinates": [ 6.609340399639791, 45.3824697997415, 2737.99997650000023 ] } },
{ "type": "Feature", "properties": { "OBJECTID": 314, "F_id": 324040110.0, "F_lat": 45.3817373, "F_lon": 6.6152352, "name": "Vizelle", "ele": "2659", "stat": "FRA" }, "geometry": { "type": "Point", "coordinates": [ 6.615235200244342, 45.381737300136365, 2658.99997650000023 ] } },
{ "type": "Feature", "properties": { "OBJECTID": 315, "F_id": 324924557.0, "F_lat": 47.228768, "F_lon": 10.0744894, "name": "Butzenspitze", "ele": "2547", "stat": "AUT" }, "geometry": { "type": "Point", "coordinates": [ 10.074489399766037, 47.228768000342995, 2546.99997650000023 ] } },
{ "type": "Feature", "properties": { "OBJECTID": 316, "F_id": 325195147.0, "F_lat": 47.2199741, "F_lon": 13.864745, "name": "Preber", "ele": "2740", "stat": "AUT" }, "geometry": { "type": "Point", "coordinates": [ 13.864745000381504, 47.21997410022459, 2739.99997650000023 ] } },
{ "type": "Feature", "properties": { "OBJECTID": 317, "F_id": 325196219.0, "F_lat": 47.2620878, "F_lon": 13.9112386, "name": "Predigtstuhl", "ele": "2543", "stat": "AUT" }, "geometry": { "type": "Point", "coordinates": [ 13.911238600281251, 47.262087800311804, 2542.99997650000023 ] } },
{ "type": "Feature", "properties": { "OBJECTID": 318, "F_id": 325199984.0, "F_lat": 47.2288283, "F_lon": 14.0150527, "name": "Brennerfeldeck", "ele": "2507", "stat": "AUT" }, "geometry": { "type": "Point", "coordinates": [ 14.015052700421847, 47.228828299886175, 2506.99997650000023 ] } },
{ "type": "Feature", "properties": { "OBJECTID": 319, "F_id": 328225959.0, "F_lat": 47.0226814, "F_lon": 10.6944633, "name": "Schlanterkopf", "ele": "2524", "stat": "AUT" }, "geometry": { "type": "Point", "coordinates": [ 10.694463299841459, 47.022681399926739, 2523.99997650000023 ] } },
{ "type": "Feature", "properties": { "OBJECTID": 320, "F_id": 328226291.0, "F_lat": 47.0256175, "F_lon": 10.7098805, "name": "Gamsköpfe", "ele": "2806", "stat": "AUT" }, "geometry": { "type": "Point", "coordinates": [ 10.709880499985161, 47.025617500247506, 2805.99997650000023 ] } },
{ "type": "Feature", "properties": { "OBJECTID": 321, "F_id": 328277043.0, "F_lat": 47.1724875, "F_lon": 10.5334694, "name": "Ober-Rauhekopf", "ele": "2811", "stat": "AUT" }, "geometry": { "type": "Point", "coordinates": [ 10.533469400192701, 47.172487500397892, 2810.99997650000023 ] } },
{ "type": "Feature", "properties": { "OBJECTID": 322, "F_id": 328329229.0, "F_lat": 46.896049, "F_lon": 10.6059763, "name": "Muttlerkopf", "ele": "2744", "stat": "AUT" }, "geometry": { "type": "Point", "coordinates": [ 10.605976300366024, 46.8960490002612, 2743.99997650000023 ] } },
{ "type": "Feature", "properties": { "OBJECTID": 323, "F_id": 328329463.0, "F_lat": 46.880004, "F_lon": 10.6169067, "name": "Schönkarlespitze", "ele": "2928", "stat": "AUT" }, "geometry": { "type": "Point", "coordinates": [ 10.616906700084201, 46.880003999584972, 2927.99997650000023 ] } },
{ "type": "Feature", "properties": { "OBJECTID": 324, "F_id": 328330002.0, "F_lat": 46.8478404, "F_lon": 10.5810567, "name": "Mataunkopf - Cima Mataun", "ele": "2892", "stat": "ITA" }, "geometry": { "type": "Point", "coordinates": [ 10.581056699806879, 46.847840400414213, 2891.99997650000023 ] } },
{ "type": "Feature", "properties": { "OBJECTID": 325, "F_id": 328330300.0, "F_lat": 46.8372666, "F_lon": 10.5461739, "name": "Klopaier Spitze - Piz Clopai", "ele": "2922", "stat": "ITA" }, "geometry": { "type": "Point", "coordinates": [ 10.546173899705764, 46.837266599873715, 2921.99997650000023 ] } },
{ "type": "Feature", "properties": { "OBJECTID": 326, "F_id": 328330391.0, "F_lat": 46.8468669, "F_lon": 10.5563765, "name": "Bergkastelspitze - Cima Castello", "ele": "2920", "stat": "AUT" }, "geometry": { "type": "Point", "coordinates": [ 10.556376499675764, 46.846866899587781, 2919.99997650000023 ] } },
{ "type": "Feature", "properties": { "OBJECTID": 327, "F_id": 328333086.0, "F_lat": 46.9325072, "F_lon": 10.1077148, "name": "Kleine Vallüla", "ele": "2643", "stat": "AUT" }, "geometry": { "type": "Point", "coordinates": [ 10.107714799698272, 46.932507200347061, 2642.99997650000023 ] } },
{ "type": "Feature", "properties": { "OBJECTID": 328, "F_id": 328333366.0, "F_lat": 46.9552706, "F_lon": 10.1349973, "name": "Ballunspitze", "ele": "2671", "stat": "AUT" }, "geometry": { "type": "Point", "coordinates": [ 10.134997299685665, 46.955270599858352, 2670.99997650000023 ] } },
{ "type": "Feature", "properties": { "OBJECTID": 329, "F_id": 328333874.0, "F_lat": 46.9828817, "F_lon": 10.1715678, "name": "Grieskopf", "ele": "2754", "stat": "AUT" }, "geometry": { "type": "Point", "coordinates": [ 10.171567799914101, 46.982881700430198, 2753.99997650000023 ] } },
{ "type": "Feature", "properties": { "OBJECTID": 330, "F_id": 328337796.0, "F_lat": 46.995412, "F_lon": 10.68087, "name": "Zirmesspitze", "ele": "2945", "stat": "AUT" }, "geometry": { "type": "Point", "coordinates": [ 10.680870000350296, 46.995412000363558, 2944.99997650000023 ] } },
{ "type": "Feature", "properties": { "OBJECTID": 331, "F_id": 328338590.0, "F_lat": 46.9523248, "F_lon": 10.6674212, "name": "Arzkopf", "ele": "2860", "stat": "AUT" }, "geometry": { "type": "Point", "coordinates": [ 10.667421200328192, 46.952324800349288, 2859.99997650000023 ] } },
{ "type": "Feature", "properties": { "OBJECTID": 332, "F_id": 328338774.0, "F_lat": 46.9739535, "F_lon": 10.6560481, "name": "Serneskopf", "ele": "2703", "stat": "AUT" }, "geometry": { "type": "Point", "coordinates": [ 10.656048100339603, 46.973953500054051, 2702.99997650000023 ] } },
{ "type": "Feature", "properties": { "OBJECTID": 333, "F_id": 328340715.0, "F_lat": 47.0155504, "F_lon": 10.7079423, "name": "Feichtner Karlspitze", "ele": "2916", "stat": "AUT" }, "geometry": { "type": "Point", "coordinates": [ 10.707942299997171, 47.015550400230836, 2915.99997650000023 ] } },
{ "type": "Feature", "properties": { "OBJECTID": 334, "F_id": 328340753.0, "F_lat": 47.011232, "F_lon": 10.7113003, "name": "Alter Mann", "ele": "2887", "stat": "AUT" }, "geometry": { "type": "Point", "coordinates": [ 10.711300300168773, 47.011231999657127, 2886.99997650000023 ] } },
{ "type": "Feature", "properties": { "OBJECTID": 335, "F_id": 328340941.0, "F_lat": 46.9988654, "F_lon": 10.7070113, "name": "Kuppkarlesspitze", "ele": "2992", "stat": "AUT" }, "geometry": { "type": "Point", "coordinates": [ 10.707011300231386, 46.998865399718454, 2991.99997650000023 ] } },
{ "type": "Feature", "properties": { "OBJECTID": 336, "F_id": 328365549.0, "F_lat": 47.0476646, "F_lon": 10.3012701, "name": "Oberplattkopf", "ele": "2789", "stat": "AUT" }, "geometry": { "type": "Point", "coordinates": [ 10.301270100135071, 47.047664599641621, 2788.99997650000023 ] } },
{ "type": "Feature", "properties": { "OBJECTID": 337, "F_id": 328365621.0, "F_lat": 47.0520317, "F_lon": 10.2867644, "name": "Fatlarspitze", "ele": "2986", "stat": "AUT" }, "geometry": { "type": "Point", "coordinates": [ 10.286764399757317, 47.052031700302791, 2985.99997650000023 ] } },
{ "type": "Feature", "properties": { "OBJECTID": 338, "F_id": 328365807.0, "F_lat": 47.0705129, "F_lon": 10.2931023, "name": "Seßladspitze", "ele": "2906", "stat": "AUT" }, "geometry": { "type": "Point", "coordinates": [ 10.293102299931263, 47.070512899650623, 2905.99997650000023 ] } },
{ "type": "Feature", "properties": { "OBJECTID": 339, "F_id": 328365871.0, "F_lat": 47.0763223, "F_lon": 10.2973095, "name": "Madaunspitze", "ele": "2961", "stat": "AUT" }, "geometry": { "type": "Point", "coordinates": [ 10.297309500233325, 47.076322299734386, 2960.99997650000023 ] } },
{ "type": "Feature", "properties": { "OBJECTID": 340, "F_id": 328365933.0, "F_lat": 47.0792824, "F_lon": 10.3060888, "name": "Kreuzjochspitze", "ele": "2919", "stat": "AUT" }, "geometry": { "type": "Point", "coordinates": [ 10.306088799858287, 47.079282400262628, 2918.99997650000023 ] } },
{ "type": "Feature", "properties": { "OBJECTID": 341, "F_id": 328366072.0, "F_lat": 47.0815006, "F_lon": 10.3239248, "name": "Beilstein", "ele": "2749", "stat": "AUT" }, "geometry": { "type": "Point", "coordinates": [ 10.32392480038925, 47.081500599673006, 2748.99997650000023 ] } },
{ "type": "Feature", "properties": { "OBJECTID": 342, "F_id": 328366292.0, "F_lat": 47.091446, "F_lon": 10.3462594, "name": "Hohe Spitze", "ele": "2796", "stat": "AUT" }, "geometry": { "type": "Point", "coordinates": [ 10.346259399551684, 47.09144599983307, 2795.99997650000023 ] } },
{ "type": "Feature", "properties": { "OBJECTID": 343, "F_id": 328381556.0, "F_lat": 47.1765617, "F_lon": 10.5023138, "name": "Simeleskopf", "ele": "2804", "stat": "AUT" }, "geometry": { "type": "Point", "coordinates": [ 10.502313799842057, 47.176561699962519, 2803.99997650000023 ] } },
{ "type": "Feature", "properties": { "OBJECTID": 344, "F_id": 328381795.0, "F_lat": 47.1711079, "F_lon": 10.4779916, "name": "Mittlere Bocksgartenspitze", "ele": "2941", "stat": "AUT" }, "geometry": { "type": "Point", "coordinates": [ 10.47799160003234, 47.171107899909714, 2940.99997650000023 ] } },